[
    {
        "osm_id": "node/366500797",
        "governorate": "الجيزة",
        "name": "معهد القلب (Maahad El Qalb)",
        "address": "معهد القلب، شارع النبوى المهندس، كيت كات، الجيزة",
        "latitude": 30.064775,
        "longitude": 31.2098013
    },
    {
        "osm_id": "node/411676470",
        "governorate": "القاهرة",
        "name": "مستشفى القوات الجوية (Al-Quwat Al-Gaweya Hospital)",
        "address": "مستشفى القوات الجوية، شارع احمد سعيد، العباسيه الشرقيه، الوايلى، القاهرة",
        "latitude": 30.0624158,
        "longitude": 31.2738254
    },
    {
        "osm_id": "node/411895460",
        "governorate": "القاهرة",
        "name": "مستشفى القاهرة التخصصي (Cairo Specialized Hospital)",
        "address": "مستشفى القاهرة التخصصي، شارع ابو عبيد البكرى، قسم مصر الجديدة، الزيتون، القاهرة",
        "latitude": 30.0945129,
        "longitude": 31.317617
    },
    {
        "osm_id": "node/414554419",
        "governorate": "القاهرة",
        "name": "دار المقطم (Dar Al-Moqattam)",
        "address": "دار المقطم، شارع 14، الخليفة، القاهرة",
        "latitude": 30.0112377,
        "longitude": 31.2854199
    },
    {
        "osm_id": "node/443368255",
        "governorate": "القاهرة",
        "name": "مركز الإيمان الطبي (El Eman Medical Center)",
        "address": "مركز الإيمان الطبي، شارع لوساكا، المنطقة السادسة، مدينة نصر، القاهرة",
        "latitude": 30.0642054,
        "longitude": 31.3455818
    },
    {
        "osm_id": "node/452376256",
        "governorate": "القاهرة",
        "name": "النزهة الدولي (Al-Nozha Al-Dawly)",
        "address": "النزهة الدولي، شارع كمال الدين حسين، شيراتون، القاهرة",
        "latitude": 30.1058829,
        "longitude": 31.3661322
    },
    {
        "osm_id": "node/475367904",
        "governorate": "القاهرة",
        "name": "مستشفى الفتح الإسلامي (Alfath Islamic Hospital)",
        "address": "مستشفى الفتح الإسلامي، شارع 9، معادي الخبيري، الفاروقية، القاهرة",
        "latitude": 29.9660774,
        "longitude": 31.2542684
    },
    {
        "osm_id": "node/517381615",
        "governorate": "جنوب سيناء",
        "name": "مستشفى ذهب الإختصاصي (Dahab Specialised Hospital)",
        "address": "مستشفى ذهب الإختصاصي، شارع عباس العقاد، مدينه دهب، مشربة، دهب، جنوب سيناء",
        "latitude": 28.4883845,
        "longitude": 34.5114594
    },
    {
        "osm_id": "node/523254716",
        "governorate": "القاهرة",
        "name": "مستشفى عامة",
        "address": "شارع ابن هانى الاندلسى، المنطقة الأولى، مدينة نصر، القاهرة",
        "latitude": 30.062687,
        "longitude": 31.3270141
    },
    {
        "osm_id": "node/570069182",
        "governorate": "الشرقية",
        "name": "مستشفى ابن سينا",
        "address": "مستشفى ابن سينا، شارع عمر بن عبد العزيز، المجاورة 9، العاشر من رمضان، الشرقية",
        "latitude": 30.293659,
        "longitude": 31.7307662
    },
    {
        "osm_id": "node/570069186",
        "governorate": "الشرقية",
        "name": "ميتشفى شرف",
        "address": "ميتشفى شرف، شارع عمر بن عبد العزيز، المجاورة 9، العاشر من رمضان، الشرقية",
        "latitude": 30.2890918,
        "longitude": 31.7314033
    },
    {
        "osm_id": "node/570069286",
        "governorate": "الشرقية",
        "name": "مستشفى التأمين الصحي",
        "address": "مستشفى التأمين الصحي، شارع ابو بكر الصديق، م ج 2، العاشر من رمضان، الشرقية",
        "latitude": 30.2863681,
        "longitude": 31.7492561
    },
    {
        "osm_id": "node/595353701",
        "governorate": "مطروح",
        "name": "مستشفى مطروح العام (Matrouh General Hospital)",
        "address": "مستشفى مطروح العام، شارع اسكندرية، محدرة، مرسى مطروح، مطروح",
        "latitude": 31.3492419,
        "longitude": 27.2413592
    },
    {
        "osm_id": "node/653596105",
        "governorate": "القاهرة",
        "name": "مستشفي النصر (El nasr)",
        "address": "مستشفي النصر، شارع عمر بن عبد العزيز، حلوان، القاهرة",
        "latitude": 29.8399443,
        "longitude": 31.3229757
    },
    {
        "osm_id": "node/662158924",
        "governorate": "القاهرة",
        "name": "مستشفى طلبة البؤث (Talabat Al-Boouth Hospital)",
        "address": "مستشفى طلبة البؤث، شارع الفردوس، الجنزورى، الوايلى، القاهرة",
        "latitude": 30.0579734,
        "longitude": 31.2771374
    },
    {
        "osm_id": "node/663080305",
        "governorate": "القاهرة",
        "name": "مستشفى المقطم (Al-Muqattam Hospital)",
        "address": "مستشفى المقطم، شارع مجري العيون، حدائق زينهم، عين الصيرة، القاهرة",
        "latitude": 30.0209068,
        "longitude": 31.2431749
    },
    {
        "osm_id": "node/665450260",
        "governorate": "القاهرة",
        "name": "مستشفى كوبري القبة العسكري (Kobry Alkoba Military Hospital)",
        "address": "مستشفى كوبري القبة العسكري، شارع الخليفه المأمون، قسم مصر الجديدة، منشية البكرى، الدمرداش، القاهرة",
        "latitude": 30.0846029,
        "longitude": 31.2973393
    },
    {
        "osm_id": "node/678457937",
        "governorate": "القاهرة",
        "name": "مستشفى الميرغنى (El Merghany hospital)",
        "address": "مستشفى الميرغنى، شارع محمود ابو الليل، الجولف، مدينة نصر، القاهرة",
        "latitude": 30.0815072,
        "longitude": 31.3317412
    },
    {
        "osm_id": "node/687745925",
        "governorate": "الجيزة",
        "name": "مستشفى عامة",
        "address": "شارع جلال الدين الحمامصى، ميت عقبة، الجيزة",
        "latitude": 30.0664715,
        "longitude": 31.1951099
    },
    {
        "osm_id": "node/741702670",
        "governorate": "القاهرة",
        "name": "مستشفى مصر للطيران (Egypt Air Hospital)",
        "address": "مستشفى مصر للطيران، شارع ابو بكر الصديق، مصر الجديدة، القاهرة",
        "latitude": 30.091848,
        "longitude": 31.3489159
    },
    {
        "osm_id": "node/768600810",
        "governorate": "الغربية",
        "name": "صيدلية د / أسماء عبيد (DrAsmaaEbeidPharmacy)",
        "address": "صيدلية د / أسماء عبيد، شارع السكة الحديد، مدينه سمنود، الغربية",
        "latitude": 30.962778,
        "longitude": 31.244444
    },
    {
        "osm_id": "node/903481454",
        "governorate": "الجيزة",
        "name": "مستشفى الرماد (Al-Ramad Hospital)",
        "address": "مستشفى الرماد، شارع الاهرام، بين السرايات، الجيزة",
        "latitude": 30.0152542,
        "longitude": 31.2156569
    },
    {
        "osm_id": "node/1179121562",
        "governorate": "الإسكندرية",
        "name": "مستشفى ماري مرقص (Al-Qiddissin)",
        "address": "مستشفى ماري مرقص، شارع زيد بن ثابت، ميامي، الإسكندرية",
        "latitude": 31.2636249,
        "longitude": 29.9917679
    },
    {
        "osm_id": "node/1438270139",
        "governorate": "القاهرة",
        "name": "منظمه الصحه العالمية (World Health Organisation)",
        "address": "منظمه الصحه العالمية، شارع دكتور محمود ياسين، المنطقة السادسة، مدينة نصر، القاهرة",
        "latitude": 30.0637093,
        "longitude": 31.3473432
    },
    {
        "osm_id": "node/1493105013",
        "governorate": "البحر الأحمر",
        "name": "مستشفى عامة",
        "address": "طريق القصير، مرسى علم، Madinat Coraya، البحر الأحمر",
        "latitude": 25.9148007,
        "longitude": 34.4046055
    },
    {
        "osm_id": "node/1698478723",
        "governorate": "الإسكندرية",
        "name": "مستشفي مصطفي كامل (Mostafa Kamel Hospital)",
        "address": "مستشفي مصطفي كامل، شارع المشير احمد اسماعيل، الإسكندرية",
        "latitude": 31.2258268,
        "longitude": 29.9408078
    },
    {
        "osm_id": "node/1844289361",
        "governorate": "الإسكندرية",
        "name": "معهد البحوث الطبيه (Institute for Medical Research)",
        "address": "معهد البحوث الطبيه، شارع مسجد المواساه، إبراهيمية، الإسكندرية",
        "latitude": 31.2052904,
        "longitude": 29.9275717
    },
    {
        "osm_id": "node/1844290834",
        "governorate": "الإسكندرية",
        "name": "مستشفي المواساه (Al-Muwasah Hospital)",
        "address": "مستشفي المواساه، شارع مسجد المواساه، إبراهيمية، الإسكندرية",
        "latitude": 31.2043914,
        "longitude": 29.9286838
    },
    {
        "osm_id": "node/1888411221",
        "governorate": "المنيا",
        "name": "بنك الدم الإقليمى (Regional Blood Bank)",
        "address": "بنك الدم الإقليمى، شارع محمد بدوى، خاطر على، المنيا",
        "latitude": 28.0912713,
        "longitude": 30.7643128
    },
    {
        "osm_id": "node/1888411228",
        "governorate": "المنيا",
        "name": "معهد الأورام (Cancer Institute)",
        "address": "معهد الأورام، شارع كورنيش النيل، خاطر على، المنيا",
        "latitude": 28.0916688,
        "longitude": 30.7645596
    },
    {
        "osm_id": "node/1888411235",
        "governorate": "المنيا",
        "name": "مستوصف الجمعية الشرعية (Legal Assembly Hospital)",
        "address": "مستوصف الجمعية الشرعية، شارع مرسى، عمار حسين، المنيا",
        "latitude": 28.0841913,
        "longitude": 30.7624353
    },
    {
        "osm_id": "node/1888451891",
        "governorate": "المنيا",
        "name": "مستشفى المبرة (Al-Mabra Hospital)",
        "address": "مستشفى المبرة، شارع محمود فهمي النقراشى، سيد جلال، المنيا",
        "latitude": 28.0965337,
        "longitude": 30.759458
    },
    {
        "osm_id": "node/1920589480",
        "governorate": "الجيزة",
        "name": "مركز عدن الطبى",
        "address": "مركز عدن الطبى، شارع ترعه الزمر، ارض الواء، المهندسين، نزلة بهجت، الجيزة",
        "latitude": 30.0540358,
        "longitude": 31.1896206
    },
    {
        "osm_id": "node/1939482580",
        "governorate": "الجيزة",
        "name": "مستشفى المروة التخصصى (Al-Marwa Specialised Hospital)",
        "address": "مستشفى المروة التخصصى، شارع صلاح سالم، الجيزة",
        "latitude": 29.9972489,
        "longitude": 31.2092094
    },
    {
        "osm_id": "node/2001022531",
        "governorate": "جنوب سيناء",
        "name": "Nabq Dental Clinic",
        "address": "Nabq Dental Clinic، طريق السلام، النبق، خليج نبق، جنوب سيناء",
        "latitude": 28.0347708,
        "longitude": 34.4329047
    },
    {
        "osm_id": "node/2007861753",
        "governorate": "الدقهلية",
        "name": "Makka Hospital",
        "address": "Makka Hospital، شارع النزهة، مدينه السنبلاوين، السنبلاوين، الدقهلية",
        "latitude": 30.8844477,
        "longitude": 31.4574967
    },
    {
        "osm_id": "node/2268006755",
        "governorate": "القاهرة",
        "name": "مستشفى النور المحمدى (Al-Nour Al-Mohammady Hospital)",
        "address": "مستشفى النور المحمدى، طريق مسطرد القديم، المطريه الغربيه، عين شمس، القاهرة",
        "latitude": 30.1269386,
        "longitude": 31.3077521
    },
    {
        "osm_id": "node/2268006756",
        "governorate": "القليوبية",
        "name": "مستشفى الحق (Al-Haqq Hospital)",
        "address": "مستشفى الحق، شارع المشروع، عرب الطويلة، مسطرد، شبرا الخيمة، القليوبية",
        "latitude": 30.1333088,
        "longitude": 31.3139962
    },
    {
        "osm_id": "node/2297109152",
        "governorate": "شمال سيناء",
        "name": "مستشفى رفح (Rafah Hopital)",
        "address": "مستشفى رفح، el Bahr، شمال سيناء",
        "latitude": 31.2562276,
        "longitude": 34.2279393
    },
    {
        "osm_id": "node/2429005805",
        "governorate": "جنوب سيناء",
        "name": "El Wekala Medical Centre",
        "address": "El Wekala Medical Centre، طريق نويبع، طابا، مدينه طابا، Taba Heights، طابا، جنوب سيناء",
        "latitude": 29.3925571,
        "longitude": 34.7926172
    },
    {
        "osm_id": "node/2524330848",
        "governorate": "الشرقية",
        "name": "مستشفى عامة",
        "address": "شارع الحسين، المجاورة 32، العاشر من رمضان، الشرقية",
        "latitude": 30.3023768,
        "longitude": 31.7703995
    },
    {
        "osm_id": "node/2524331007",
        "governorate": "الشرقية",
        "name": "مستشفى خميس التخصصي",
        "address": "مستشفى خميس التخصصي، شارع الطائف، المجاورة 22، العاشر من رمضان، الشرقية",
        "latitude": 30.2917256,
        "longitude": 31.7566488
    },
    {
        "osm_id": "node/2549916507",
        "governorate": "الجيزة",
        "name": "د.محمد البراغى (Dr.Mohamed El baraghi)",
        "address": "د.محمد البراغى، محور الكفراوى، المحور المركزي السكني، الحى الثالث، السادس من أكتوبر، الجيزة",
        "latitude": 29.9667244,
        "longitude": 30.9337571
    },
    {
        "osm_id": "node/2550066152",
        "governorate": "الجيزة",
        "name": "مركز الحصرى الصحى (AL Hosary medical department)",
        "address": "مركز الحصرى الصحى، طريق التحرير، المحور المركزي السكني، الحى الثامن، السادس من أكتوبر، الجيزة",
        "latitude": 29.9730095,
        "longitude": 30.9437865
    },
    {
        "osm_id": "node/2621106542",
        "governorate": "القاهرة",
        "name": "مستشفى جوهار (Gohar Hospital)",
        "address": "مستشفى جوهار، شارع الامام البخاري، قباء، القاهرة",
        "latitude": 30.1459715,
        "longitude": 31.3955566
    },
    {
        "osm_id": "node/2624645240",
        "governorate": "الجيزة",
        "name": "مركز الأهرام للأشعة",
        "address": "مركز الأهرام للأشعة، المحور المركزى، المحور المركزي السكني، الحى الثالث، السادس من أكتوبر، الجيزة",
        "latitude": 29.9673265,
        "longitude": 30.9359698
    },
    {
        "osm_id": "node/2722597993",
        "governorate": "الإسماعيلية",
        "name": "عيادة الدكتور عبد الحميد صبح",
        "address": "عيادة الدكتور عبد الحميد صبح، شارع طارق بن زياد، الإسماعيلية",
        "latitude": 30.5902189,
        "longitude": 32.2626943
    },
    {
        "osm_id": "node/3118523495",
        "governorate": "الدقهلية",
        "name": "مستشفى الجزيرة الدولى - السلاب (Gezeera International Hospital - El Sallab)",
        "address": "مستشفى الجزيرة الدولى - السلاب، شارع محمد عاطف المنجى، اول ميت طلخا، طلخا، الدقهلية",
        "latitude": 31.0453946,
        "longitude": 31.3656479
    },
    {
        "osm_id": "node/3119668295",
        "governorate": "الدقهلية",
        "name": "Al-Hekma Hospital",
        "address": "Al-Hekma Hospital، شارع الشيخ سعد، خامس صيام، المنصورة، الدقهلية",
        "latitude": 31.0475408,
        "longitude": 31.3886277
    },
    {
        "osm_id": "node/3157884695",
        "governorate": "القاهرة",
        "name": "مستشفي الدعاة",
        "address": "مستشفي الدعاة، شارع محمد شفيق، مصر الجديدة، القاهرة",
        "latitude": 30.1042297,
        "longitude": 31.338523
    },
    {
        "osm_id": "node/3208430197",
        "governorate": "الجيزة",
        "name": "فيني",
        "address": "فيني، شارع عبد الرحيم صبري، الدقى، الجيزة",
        "latitude": 30.0414944,
        "longitude": 31.2143358
    },
    {
        "osm_id": "node/3214300154",
        "governorate": "الجيزة",
        "name": "مستشفى 6 اكتوبر (6 October Hospiatl)",
        "address": "مستشفى 6 اكتوبر، شارع الموسيقار على اسماعيل، الدقى، الجيزة",
        "latitude": 30.0374677,
        "longitude": 31.2144598
    },
    {
        "osm_id": "node/3290355573",
        "governorate": "الشرقية",
        "name": "ibarhim shabaan pharmacy",
        "address": "ibarhim shabaan pharmacy، شارع المستشفى، مدينه منيا القمح، الشرقية",
        "latitude": 30.5196212,
        "longitude": 31.3534174
    },
    {
        "osm_id": "node/3395906136",
        "governorate": "القاهرة",
        "name": "مركز الطبيب (Al Tabib Centre)",
        "address": "مركز الطبيب، شارع الخليفه الظاهر، التجمع الخامس، أحياء التجمع الخامس، القاهرة",
        "latitude": 30.0039967,
        "longitude": 31.4224834
    },
    {
        "osm_id": "node/3458193051",
        "governorate": "الإسكندرية",
        "name": "مستشفى شرق المدينة",
        "address": "مستشفى شرق المدينة، شارع طلحه، ميامي، الإسكندرية",
        "latitude": 31.2620088,
        "longitude": 29.9923347
    },
    {
        "osm_id": "node/3748661346",
        "governorate": "الشرقية",
        "name": "مستشفى فرسيس",
        "address": "مستشفى فرسيس، شارع نادى بلاتينيوم الرياضى، farsis، إكو، الشرقية",
        "latitude": 30.6726112,
        "longitude": 31.4675882
    },
    {
        "osm_id": "node/3893917394",
        "governorate": "الإسكندرية",
        "name": "مستشفى إبراهيم عبيد التخصصي",
        "address": "مستشفى إبراهيم عبيد التخصصي، شارع عبد السلام عارف، فلمنج، الإسكندرية",
        "latitude": 31.2376371,
        "longitude": 29.9580884
    },
    {
        "osm_id": "node/3949929966",
        "governorate": "القاهرة",
        "name": "Nasr el Islam Hosiptal",
        "address": "Nasr el Islam Hosiptal، شارع الترعه الشرقي، منيه السيرج، الشرابية، القاهرة",
        "latitude": 30.088695,
        "longitude": 31.2538297
    },
    {
        "osm_id": "node/3966621290",
        "governorate": "الجيزة",
        "name": "مستشفي الواحة",
        "address": "مستشفي الواحة، شارع دكتور على السيد، ميت عقبة، الجيزة",
        "latitude": 30.0650864,
        "longitude": 31.2008468
    },
    {
        "osm_id": "node/3966621667",
        "governorate": "القاهرة",
        "name": "مستشفي الهلال الأحمر المصري",
        "address": "مستشفي الهلال الأحمر المصري، شارع محمد حماد، حلوان، القاهرة",
        "latitude": 29.8599171,
        "longitude": 31.3213395
    },
    {
        "osm_id": "node/3966621672",
        "governorate": "الشرقية",
        "name": "مستشفي المبرة",
        "address": "مستشفي المبرة، شارع سعد باشا زغلول، منشاه أباظة، كفر الزند، الشرقية",
        "latitude": 30.5855544,
        "longitude": 31.4915372
    },
    {
        "osm_id": "node/3966621673",
        "governorate": "القاهرة",
        "name": "مجلس طبي وزارة الطيران المدنى",
        "address": "مجلس طبي وزارة الطيران المدنى، طريق المطار، القاهرة",
        "latitude": 30.1183131,
        "longitude": 31.3887808
    },
    {
        "osm_id": "node/3966622155",
        "governorate": "الفيوم",
        "name": "مستشفي التامين الصحي بالفيوم",
        "address": "مستشفي التامين الصحي بالفيوم، شارع احمد حلمى، اول النجارين، الفيوم",
        "latitude": 29.3106514,
        "longitude": 30.859477
    },
    {
        "osm_id": "node/3966622156",
        "governorate": "الجيزة",
        "name": "معهد بحوث امراض الرمد",
        "address": "معهد بحوث امراض الرمد، شارع الاهرام، بين السرايات، الجيزة",
        "latitude": 30.0154743,
        "longitude": 31.2163557
    },
    {
        "osm_id": "node/3966622817",
        "governorate": "القليوبية",
        "name": "عيادة التامين الصحي بالعبور (القليوبية)",
        "address": "عيادة التامين الصحي بالعبور (القليوبية)، شارع 86، اسكان الشباب، العبور، القليوبية",
        "latitude": 30.2561237,
        "longitude": 31.4744552
    },
    {
        "osm_id": "node/3966622857",
        "governorate": "الجيزة",
        "name": "معهد الرمد التذكاري للابحاث",
        "address": "معهد الرمد التذكاري للابحاث، شارع الفاتح، بين السرايات، الجيزة",
        "latitude": 30.0154244,
        "longitude": 31.2154001
    },
    {
        "osm_id": "node/3979548721",
        "governorate": "البحيرة",
        "name": "مستشفى هيفاء الطبى",
        "address": "مستشفى هيفاء الطبى، شارع المدارس، المجد، البحيرة",
        "latitude": 31.0968978,
        "longitude": 30.6736142
    },
    {
        "osm_id": "node/4030318934",
        "governorate": "قنا",
        "name": "الوحده الصحية",
        "address": "الوحده الصحية، شارع مسجد الامارات، قرية الصبريات، قنا",
        "latitude": 26.1181687,
        "longitude": 32.432933
    },
    {
        "osm_id": "node/4229667089",
        "governorate": "أسيوط",
        "name": "Arc Angle Mikhael Hospital",
        "address": "Arc Angle Mikhael Hospital، شارع صلاح الدين الايوبى، سابع، أسيوط",
        "latitude": 27.1838228,
        "longitude": 31.1862351
    },
    {
        "osm_id": "node/4229667090",
        "governorate": "أسيوط",
        "name": "El Zerayeen Hospital",
        "address": "El Zerayeen Hospital، شارع المساحة، أسيوط",
        "latitude": 27.1858024,
        "longitude": 31.1866477
    },
    {
        "osm_id": "node/4229667091",
        "governorate": "أسيوط",
        "name": "Essam El Shrief El Tkasosy Hospital",
        "address": "Essam El Shrief El Tkasosy Hospital، شارع الجيش، سادس، أسيوط",
        "latitude": 27.181769,
        "longitude": 31.1860765
    },
    {
        "osm_id": "node/4229667092",
        "governorate": "أسيوط",
        "name": "Sant Maria Hospital",
        "address": "Sant Maria Hospital، شارع الحكمدار، سابع، أسيوط",
        "latitude": 27.191093,
        "longitude": 31.1854314
    },
    {
        "osm_id": "node/4229667093",
        "governorate": "أسيوط",
        "name": "El Akaad Hospital",
        "address": "El Akaad Hospital، شارع الجلاء، سابع، أسيوط",
        "latitude": 27.1887258,
        "longitude": 31.1792153
    },
    {
        "osm_id": "node/4229667094",
        "governorate": "أسيوط",
        "name": "Dar El Shefaa Hospital",
        "address": "Dar El Shefaa Hospital، شارع جوده الاسدي، سابع، أسيوط",
        "latitude": 27.1885444,
        "longitude": 31.1805005
    },
    {
        "osm_id": "node/4229667095",
        "governorate": "أسيوط",
        "name": "El Reda Hospital",
        "address": "El Reda Hospital، شارع جوده الاسدي، سابع، أسيوط",
        "latitude": 27.1888976,
        "longitude": 31.1812939
    },
    {
        "osm_id": "node/4229667096",
        "governorate": "أسيوط",
        "name": "El Zhraa Hospital",
        "address": "El Zhraa Hospital، شارع جوده الاسدي، سابع، أسيوط",
        "latitude": 27.1888727,
        "longitude": 31.1812136
    },
    {
        "osm_id": "node/4229667098",
        "governorate": "أسيوط",
        "name": "El Nseem Dr.Trez Mansour Hospital",
        "address": "El Nseem Dr.Trez Mansour Hospital، شارع الجيش، سادس، أسيوط",
        "latitude": 27.1807668,
        "longitude": 31.187412
    },
    {
        "osm_id": "node/4229667099",
        "governorate": "أسيوط",
        "name": "مستشفی الحياة",
        "address": "مستشفی الحياة، شارع مكه المكرمة، سابع، أسيوط",
        "latitude": 27.1906049,
        "longitude": 31.1797428
    },
    {
        "osm_id": "node/4229667100",
        "governorate": "أسيوط",
        "name": "El Safaa Hospital",
        "address": "El Safaa Hospital، شارع مكه المكرمة، سابع، أسيوط",
        "latitude": 27.1907612,
        "longitude": 31.1802102
    },
    {
        "osm_id": "node/4229667101",
        "governorate": "أسيوط",
        "name": "El Aksaa Hospital",
        "address": "El Aksaa Hospital، شارع الجيش، الشركات، أسيوط",
        "latitude": 27.1857479,
        "longitude": 31.1818518
    },
    {
        "osm_id": "node/4229667102",
        "governorate": "أسيوط",
        "name": "El Salama Hospital",
        "address": "El Salama Hospital، شارع 13، أسيوط",
        "latitude": 27.1968316,
        "longitude": 31.1786987
    },
    {
        "osm_id": "node/4229667103",
        "governorate": "أسيوط",
        "name": "The Police Hospital",
        "address": "The Police Hospital، طريق اسوان الزراعى الغربى، أسيوط",
        "latitude": 27.1933698,
        "longitude": 31.1800197
    },
    {
        "osm_id": "node/4229667104",
        "governorate": "أسيوط",
        "name": "مستشفى الصدر (Asyut Chest Hospital)",
        "address": "مستشفى الصدر، شارع الازهر، أسيوط",
        "latitude": 27.1954364,
        "longitude": 31.17658
    },
    {
        "osm_id": "node/4229667105",
        "governorate": "أسيوط",
        "name": "مستشفى أسيوط للصحة النفسية وعلاج الإدمان (Asyout Hospital for Mental Health)",
        "address": "مستشفى أسيوط للصحة النفسية وعلاج الإدمان، شارع سليمان الحكيم 1، أسيوط",
        "latitude": 27.1953832,
        "longitude": 31.1749665
    },
    {
        "osm_id": "node/4229667119",
        "governorate": "أسيوط",
        "name": "مستشفى المبرة (Al Mabara Hospital)",
        "address": "مستشفى المبرة، طريق اسوان الزراعى الغربى، سابع، أسيوط",
        "latitude": 27.1931881,
        "longitude": 31.1881692
    },
    {
        "osm_id": "node/4229667120",
        "governorate": "أسيوط",
        "name": "مستشفی جامعة أسيوط (Asyut University Hospital)",
        "address": "مستشفی جامعة أسيوط، شارع اللواء حسن كامل، الخامسة، أسيوط",
        "latitude": 27.1848327,
        "longitude": 31.166287
    },
    {
        "osm_id": "node/4229667121",
        "governorate": "أسيوط",
        "name": "Nekabet El Moalmen Hospital",
        "address": "Nekabet El Moalmen Hospital، شارع 27، تقسيم المعلمين، سادس، أسيوط",
        "latitude": 27.1669352,
        "longitude": 31.1940161
    },
    {
        "osm_id": "node/4229667122",
        "governorate": "أسيوط",
        "name": "El Fayrouz Hospital",
        "address": "El Fayrouz Hospital، شارع مسجد سمير الازرق، أسيوط",
        "latitude": 27.197229,
        "longitude": 31.1794283
    },
    {
        "osm_id": "node/4302150189",
        "governorate": "القاهرة",
        "name": "مستشفى منشية البكرى العام (Manshiet El Bakry General Hospital)",
        "address": "مستشفى منشية البكرى العام، شارع جسر السويس، قسم مصر الجديدة، الزيتون، القاهرة",
        "latitude": 30.0917446,
        "longitude": 31.3065805
    },
    {
        "osm_id": "node/4328094091",
        "governorate": "القاهرة",
        "name": "مستشفي التقوي (Altaqwa hospital)",
        "address": "مستشفي التقوي، شارع السادات، المجاورة 12، مدينة الخامس عشر من مايو، القاهرة",
        "latitude": 29.8166988,
        "longitude": 31.360749
    },
    {
        "osm_id": "node/4338866103",
        "governorate": "الجيزة",
        "name": "مستشفى جامكا",
        "address": "مستشفى جامكا، شارع مصطفى الشريعى، الدقى، الجيزة",
        "latitude": 30.0464766,
        "longitude": 31.2126874
    },
    {
        "osm_id": "node/4362086147",
        "governorate": "القاهرة",
        "name": "مستشفى العاملين بقطاع البترول (Petroleum Hospital)",
        "address": "مستشفى العاملين بقطاع البترول، شارع لوساكا، المنطقة السادسة، مدينة نصر، القاهرة",
        "latitude": 30.0646977,
        "longitude": 31.3465042
    },
    {
        "osm_id": "node/4362762999",
        "governorate": "الجيزة",
        "name": "مستشفى الأمل",
        "address": "مستشفى الأمل، شارع النقيب فوزي الرماح، ميت عقبة، القاهرة، الجيزة",
        "latitude": 30.0553338,
        "longitude": 31.1912737
    },
    {
        "osm_id": "node/4388651689",
        "governorate": "الإسكندرية",
        "name": "مستشفى مركز القلب الدولي icc",
        "address": "مستشفى مركز القلب الدولي icc، شارع محمد بهاء الدين غاتورى، الإسكندرية",
        "latitude": 31.2168739,
        "longitude": 29.9422849
    },
    {
        "osm_id": "node/4424820093",
        "governorate": "السويس",
        "name": "المركز الطبي للبترول",
        "address": "المركز الطبي للبترول، طريق السويس، العين السخنه، الاتكه، الأدبية، السويس",
        "latitude": 29.9566283,
        "longitude": 32.5064034
    },
    {
        "osm_id": "node/4487345086",
        "governorate": "البحر الأحمر",
        "name": "مستشفى عامة",
        "address": "شارع العروبه، سفاجا، البحر الأحمر",
        "latitude": 26.7555185,
        "longitude": 33.941632
    },
    {
        "osm_id": "node/4507494489",
        "governorate": "الشرقية",
        "name": "مستشفى ابوحماد العام (General hospital in abu hamad)",
        "address": "مستشفى ابوحماد العام، شارع التحرير، مدينه ابو حماد، أبو حماد المحطة، الشرقية",
        "latitude": 30.5409402,
        "longitude": 31.6781779
    },
    {
        "osm_id": "node/4515942291",
        "governorate": "بنى سويف",
        "name": "مستشفى الدعوة",
        "address": "مستشفى الدعوة، شارع عبدالسلام عارف، مساكن الشرطة العسكرية، الغمراوى، بنى سويف",
        "latitude": 29.0699244,
        "longitude": 31.0856492
    },
    {
        "osm_id": "node/4515942490",
        "governorate": "بنى سويف",
        "name": "مستشفى التأمين الصحى ببنى سويف",
        "address": "مستشفى التأمين الصحى ببنى سويف، شارع عبدالسلام عارف، مساكن الشرطة العسكرية، المولد النبوى، بنى سويف",
        "latitude": 29.0741499,
        "longitude": 31.1150868
    },
    {
        "osm_id": "node/4516041489",
        "governorate": "الجيزة",
        "name": "مستشفى الهرم (Al haram hospital)",
        "address": "مستشفى الهرم، شارع الاهرام، كوم الأخضر، الجيزة",
        "latitude": 29.9903962,
        "longitude": 31.1500643
    },
    {
        "osm_id": "node/4518397388",
        "governorate": "الغربية",
        "name": "مستشفى المحلة الكبرى العام",
        "address": "مستشفى المحلة الكبرى العام، شارع 23 يوليو، ناصر، الغربية",
        "latitude": 30.9766441,
        "longitude": 31.1759901
    },
    {
        "osm_id": "node/4520377800",
        "governorate": "الشرقية",
        "name": "مستشفى عامة",
        "address": "برج العاصمه (مهندس كمال صالح)، شارع مستشفى الصدر، مدينه ابو حماد، أبو حماد المحطة، الشرقية",
        "latitude": 30.54618,
        "longitude": 31.6781111
    },
    {
        "osm_id": "node/4535673596",
        "governorate": "الجيزة",
        "name": "رواد تصحيح الإبصار",
        "address": "رواد تصحيح الإبصار، شارع سوريا، المهندسين، القاهرة، الجيزة",
        "latitude": 30.052777,
        "longitude": 31.197121
    },
    {
        "osm_id": "node/4541619494",
        "governorate": "قنا",
        "name": "مستشفي قوص المركزى (Qus central hospital)",
        "address": "مستشفي قوص المركزى، شارع الجمهوريه، مدينه قوص، قنا",
        "latitude": 25.9217049,
        "longitude": 32.7515625
    },
    {
        "osm_id": "node/4542663991",
        "governorate": "المنوفية",
        "name": "مستشفي السادات العام",
        "address": "مستشفي السادات العام، شارع سعد بن ابى وقاص، مدينة السادات، المنوفية",
        "latitude": 30.367109,
        "longitude": 30.5059541
    },
    {
        "osm_id": "node/4548173996",
        "governorate": "القاهرة",
        "name": "مستشفي اطفال مصر- التأمين الصحي (All Egypt Children Hospital)",
        "address": "مستشفي اطفال مصر- التأمين الصحي، شارع حلوان، العيني، السيدة زينب، القاهرة",
        "latitude": 30.0292907,
        "longitude": 31.2349472
    },
    {
        "osm_id": "node/4557847093",
        "governorate": "القاهرة",
        "name": "مستشفى شاكر (Shaker Hospital)",
        "address": "مستشفى شاكر، شارع الإمام على، قسم مصر الجديدة، مصر الجديدة، القاهرة",
        "latitude": 30.0941921,
        "longitude": 31.3352883
    },
    {
        "osm_id": "node/4561090493",
        "governorate": "القاهرة",
        "name": "مستشفي جمال ابو العزايم",
        "address": "مستشفي جمال ابو العزايم، شارع ابو عجيلة، المنطقة الأولى، مدينة نصر، القاهرة",
        "latitude": 30.0559906,
        "longitude": 31.330529
    },
    {
        "osm_id": "node/4563330892",
        "governorate": "الإسكندرية",
        "name": "مستشفى الانبا تكلا التخصصى (Sant Takla Speciality Hospitalia)",
        "address": "مستشفى الانبا تكلا التخصصى، شارع محمد فؤاد جلال، إبراهيمية، الإسكندرية",
        "latitude": 31.2109273,
        "longitude": 29.9265176
    },
    {
        "osm_id": "node/4569230990",
        "governorate": "الإسكندرية",
        "name": "مستشفى النزهة للقلب والعناية المركزة",
        "address": "مستشفى النزهة للقلب والعناية المركزة، شارع نبيل الوقاد (الرصافه سابقا)، الشاطبى، الإسكندرية",
        "latitude": 31.1949882,
        "longitude": 29.9168071
    },
    {
        "osm_id": "node/4575983739",
        "governorate": "سوهاج",
        "name": "د. هناء شهدى",
        "address": "د. هناء شهدى، الطريق السريع، المراغة، مركز طهطا، سوهاج",
        "latitude": 26.7001425,
        "longitude": 31.6016112
    },
    {
        "osm_id": "node/4575984694",
        "governorate": "سوهاج",
        "name": "د.عبد الناصر بدوى",
        "address": "د.عبد الناصر بدوى، طريق بلصفورة، الخولى، سوهاج",
        "latitude": 26.5461182,
        "longitude": 31.6978573
    },
    {
        "osm_id": "node/4576043491",
        "governorate": "سوهاج",
        "name": "د.نبيل صابر",
        "address": "د.نبيل صابر، شارع عمر مكرم، مدينه جرجا، سوهاج",
        "latitude": 26.3324161,
        "longitude": 31.8911944
    },
    {
        "osm_id": "node/4576058589",
        "governorate": "سوهاج",
        "name": "م المراغة العام",
        "address": "م المراغة العام، الطريق السريع، المراغة، مركز طهطا، سوهاج",
        "latitude": 26.7007093,
        "longitude": 31.6016394
    },
    {
        "osm_id": "node/4587257690",
        "governorate": "القاهرة",
        "name": "مستشفى المعادى ق.م (Maadi Hosp. A.F)",
        "address": "مستشفى المعادى ق.م، شارع كورنيش النيل، طره الاسمنت، المعادى، طرة، القاهرة",
        "latitude": 29.9674551,
        "longitude": 31.24174
    },
    {
        "osm_id": "node/4615939994",
        "governorate": "القاهرة",
        "name": "المركز الطبي ٢",
        "address": "المركز الطبي ٢، شارع احمد بن حنبل، مجموعة 4، الرحاب، القاهرة",
        "latitude": 30.0593917,
        "longitude": 31.491809
    },
    {
        "osm_id": "node/4643156891",
        "governorate": "القاهرة",
        "name": "مستشفي الحلمية العسكري (El helmya hospital)",
        "address": "مستشفي الحلمية العسكري، شارع غرب المعسكر، مصر الجديدة، القاهرة",
        "latitude": 30.1130399,
        "longitude": 31.3181568
    },
    {
        "osm_id": "node/4643646691",
        "governorate": "بورسعيد",
        "name": "مستشفى بورفواد",
        "address": "مستشفى بورفواد، شارع الجامعه، أول بورفؤاد، Port Fuad، بورسعيد",
        "latitude": 31.2440232,
        "longitude": 32.3202676
    },
    {
        "osm_id": "node/4658648390",
        "governorate": "الشرقية",
        "name": "عيادة المبرة الشاملة",
        "address": "عيادة المبرة الشاملة، شارع الفتح، الاشاره، الزقازيق، الشرقية",
        "latitude": 30.5872137,
        "longitude": 31.4909946
    },
    {
        "osm_id": "node/4682221091",
        "governorate": "الجيزة",
        "name": "دكتور بدران",
        "address": "دكتور بدران، شارع الاحرار، العجوزة، الجيزة",
        "latitude": 30.0486115,
        "longitude": 31.2079311
    },
    {
        "osm_id": "node/4683208396",
        "governorate": "الإسكندرية",
        "name": "مستشفى المدينة للمرأة (Madina Women's Hospital)",
        "address": "مستشفى المدينة للمرأة، شارع كمال الدين صلاح، كامب شيزار، إبراهيمية، الإسكندرية",
        "latitude": 31.2103065,
        "longitude": 29.9385546
    },
    {
        "osm_id": "node/4693001189",
        "governorate": "الجيزة",
        "name": "مستشفي الهرم (Al Haram Hospital)",
        "address": "مستشفي الهرم، شارع الاهرام، كوم الأخضر، الجيزة",
        "latitude": 29.9907225,
        "longitude": 31.1506313
    },
    {
        "osm_id": "node/4711604389",
        "governorate": "شمال سيناء",
        "name": "الوحدة الصحية",
        "address": "الوحدة الصحية، شمال سيناء",
        "latitude": 30.368827,
        "longitude": 34.3952838
    },
    {
        "osm_id": "node/4733980424",
        "governorate": "القاهرة",
        "name": "مركز طبي مساكن شيراتون",
        "address": "مركز طبي مساكن شيراتون، طريق النصر، القاهرة",
        "latitude": 30.0930561,
        "longitude": 31.3826141
    },
    {
        "osm_id": "node/4743134421",
        "governorate": "سوهاج",
        "name": "طهطا العام",
        "address": "طهطا العام، شارع احمد عنبر، مدينه طهطا، مركز طهطا، سوهاج",
        "latitude": 26.7738527,
        "longitude": 31.4973678
    },
    {
        "osm_id": "node/4745917821",
        "governorate": "الإسكندرية",
        "name": "مركز الصفوة للعيون",
        "address": "مركز الصفوة للعيون، شارع اللواء محمد فوزي معاذ، كامب شيزار، إبراهيمية، الإسكندرية",
        "latitude": 31.2123904,
        "longitude": 29.9406952
    },
    {
        "osm_id": "node/4745917822",
        "governorate": "الإسكندرية",
        "name": "الهيئة العامة للتأمين الصحي",
        "address": "الهيئة العامة للتأمين الصحي، شارع دكتور ابراهيم رفعت، فلمنج، الإسكندرية",
        "latitude": 31.2337129,
        "longitude": 29.9520648
    },
    {
        "osm_id": "node/4754465334",
        "governorate": "الدقهلية",
        "name": "مستشفى التكامل بميت محسن",
        "address": "مستشفى التكامل بميت محسن، شارع 1، مدينه ميت غمر، الدقهلية",
        "latitude": 30.7352406,
        "longitude": 31.2728416
    },
    {
        "osm_id": "node/4759348722",
        "governorate": "الإسكندرية",
        "name": "مستشفى النقراشي (Al-Nukrashi Hospital)",
        "address": "مستشفى النقراشي، شارع السيد محمد كريم، السيالة شرق، قسم الجمرك، الإسكندرية",
        "latitude": 31.2083488,
        "longitude": 29.8815197
    },
    {
        "osm_id": "node/4765039480",
        "governorate": "الدقهلية",
        "name": "عيادة أ.د. محمد أبوحجازى لطب المخ والأعصاب Prof.Dr. Mohammad Abu-Hegazy, Neurology Consultant",
        "address": "عيادة أ.د. محمد أبوحجازى لطب المخ والأعصاب Prof.Dr. Mohammad Abu-Hegazy، Neurology Consultant، شارع الجمهورية، خامس صيام، المنصورة، الدقهلية",
        "latitude": 31.0474963,
        "longitude": 31.3844462
    },
    {
        "osm_id": "node/4781406721",
        "governorate": "الإسكندرية",
        "name": "مستشفى بدراوى",
        "address": "مستشفى بدراوى، شارع مصطفى النجار، الإسكندرية",
        "latitude": 31.2168583,
        "longitude": 29.941556
    },
    {
        "osm_id": "node/4787216421",
        "governorate": "المنوفية",
        "name": "مستشفي موده عيون",
        "address": "مستشفي موده عيون، شارع المواساه، شبين الكوم، المنوفية",
        "latitude": 30.5606982,
        "longitude": 31.0152798
    },
    {
        "osm_id": "node/4812390121",
        "governorate": "الأقصر",
        "name": "مست إسنا المركزي",
        "address": "مست إسنا المركزي، شارع البحر الجديد، إسنا، Isna، الأقصر",
        "latitude": 25.2916299,
        "longitude": 32.5583775
    },
    {
        "osm_id": "node/4829303623",
        "governorate": "الجيزة",
        "name": "المصل واللقاح (Al massl WA Liqah)",
        "address": "المصل واللقاح، شارع البطل احمد عبد العزيز، العجوزة، الجيزة",
        "latitude": 30.0507952,
        "longitude": 31.2112053
    },
    {
        "osm_id": "node/4838404723",
        "governorate": "الأقصر",
        "name": "وحدة صحة الغريرة",
        "address": "وحدة صحة الغريرة، نجع إبراهيم غريب، Isna، الأقصر",
        "latitude": 25.5025387,
        "longitude": 32.4759886
    },
    {
        "osm_id": "node/4853146022",
        "governorate": "شمال سيناء",
        "name": "مستشفى عامة",
        "address": "شمال سيناء",
        "latitude": 30.3689577,
        "longitude": 34.395144
    },
    {
        "osm_id": "node/4853146023",
        "governorate": "شمال سيناء",
        "name": "الوحدة الصحية بقرية بئر بدا",
        "address": "الوحدة الصحية بقرية بئر بدا، شمال سيناء",
        "latitude": 30.3689709,
        "longitude": 34.3951402
    },
    {
        "osm_id": "node/4913935120",
        "governorate": "المنيا",
        "name": "مستشفى العدوة العام",
        "address": "مستشفى العدوة العام، طريق الزراعه، مدينه العدوه، المنيا",
        "latitude": 28.6954304,
        "longitude": 30.7747717
    },
    {
        "osm_id": "node/4914746727",
        "governorate": "القاهرة",
        "name": "مستشفي الفتح الخلفاوي (Elfath hospital elkhalafawi)",
        "address": "مستشفي الفتح الخلفاوي، شارع تقسيم المدارس، منيه السيرج، القاهرة",
        "latitude": 30.0983691,
        "longitude": 31.2492731
    },
    {
        "osm_id": "node/4924166623",
        "governorate": "القاهرة",
        "name": "مستشفي بتروجاس (Petrogas Hispital)",
        "address": "مستشفي بتروجاس، شارع محمود ابو النصر، مصر الجديدة، القاهرة",
        "latitude": 30.1046866,
        "longitude": 31.3334341
    },
    {
        "osm_id": "node/4927950621",
        "governorate": "القاهرة",
        "name": "مستشفي بتروجاس - قطاع البترول (Petrogas Hospital - Petrol Section)",
        "address": "مستشفي بتروجاس - قطاع البترول، شارع عبد الحميد ابو هيف، مصر الجديدة، القاهرة",
        "latitude": 30.103598,
        "longitude": 31.3311765
    },
    {
        "osm_id": "node/4938264720",
        "governorate": "الإسكندرية",
        "name": "مستشفى عامة",
        "address": "شارع الصاغ محمد عبد السلام، الإسكندرية",
        "latitude": 31.257719,
        "longitude": 29.9879757
    },
    {
        "osm_id": "node/5032097923",
        "governorate": "الجيزة",
        "name": "clean vision laser centre",
        "address": "clean vision laser centre، شارع الشهيد صالح موسى شرف، المهندسين، القاهرة، الجيزة",
        "latitude": 30.0545581,
        "longitude": 31.2040393
    },
    {
        "osm_id": "node/5056209254",
        "governorate": "الغربية",
        "name": "مستشفى عامة",
        "address": "شارع حافظ وهبى، كفر سيجر، طنطا، الغربية",
        "latitude": 30.7807215,
        "longitude": 30.9926418
    },
    {
        "osm_id": "node/5059551521",
        "governorate": "الإسكندرية",
        "name": "مستشفى الشرطه",
        "address": "مستشفى الشرطه، طريق القاهرة، الاسكندرية الصحراوي، عزبة نادي الصيد، الإسكندرية",
        "latitude": 31.1743125,
        "longitude": 29.9300207
    },
    {
        "osm_id": "node/5105686233",
        "governorate": "القاهرة",
        "name": "صيدلية دكتور عبد اللطيف (Dr. Abd el lateef farmecy)",
        "address": "صيدلية دكتور عبد اللطيف، شارع جاد الكريم، المطريه الغربيه، عين شمس، القاهرة",
        "latitude": 30.1244776,
        "longitude": 31.2974113
    },
    {
        "osm_id": "node/5108253592",
        "governorate": "البحيرة",
        "name": "مستشفي ابوحمص العام",
        "address": "مستشفي ابوحمص العام، شارع البحر، أبو حمص، البحيرة",
        "latitude": 31.104539,
        "longitude": 30.314618
    },
    {
        "osm_id": "node/5122232721",
        "governorate": "القاهرة",
        "name": "مستشفى الكبد د يس عبد الغفار الخيرية (Yassin Abdulghaffar Hepatology Center)",
        "address": "مستشفى الكبد د يس عبد الغفار الخيرية، شارع لوساكا، المنطقة السادسة، مدينة نصر، القاهرة",
        "latitude": 30.0648509,
        "longitude": 31.346945
    },
    {
        "osm_id": "node/5134665947",
        "governorate": "القاهرة",
        "name": "مركز طبي الحى الثامن",
        "address": "مركز طبي الحى الثامن، شارع افريقيا، مساكن بنك الاسكان والتعمير، مدينة نصر، القاهرة",
        "latitude": 30.0561602,
        "longitude": 31.35774
    },
    {
        "osm_id": "node/5134666024",
        "governorate": "القاهرة",
        "name": "ايجيكير",
        "address": "ايجيكير، شارع الشهيد محمد مصطفى كاريكا، عمارات اطلس، مدينة نصر، القاهرة",
        "latitude": 30.0597161,
        "longitude": 31.3603878
    },
    {
        "osm_id": "node/5134666532",
        "governorate": "القاهرة",
        "name": "مركز طبي الحى الثامن",
        "address": "مركز طبي الحى الثامن، شارع دكتور حسن الشريف، مساكن السويسرى أ، مدينة نصر، القاهرة",
        "latitude": 30.0553351,
        "longitude": 31.3576391
    },
    {
        "osm_id": "node/5140221524",
        "governorate": "القاهرة",
        "name": "مستشفى الريان (alRayan Hospital)",
        "address": "مستشفى الريان، شارع 77، معادي الخبيري، الفاروقية، القاهرة",
        "latitude": 29.967548,
        "longitude": 31.264262
    },
    {
        "osm_id": "node/5147555621",
        "governorate": "القاهرة",
        "name": "مستشفى المستقبل التخصصي (Future Specialist Hospital)",
        "address": "مستشفى المستقبل التخصصي، شارع نخله المطيعي، مصر الجديدة، القاهرة",
        "latitude": 30.0991342,
        "longitude": 31.3453964
    },
    {
        "osm_id": "node/5170748421",
        "governorate": "الإسكندرية",
        "name": "مستشفى المدينة المنورة",
        "address": "مستشفى المدينة المنورة، شارع عمرو بن العاص، ميامي، الإسكندرية",
        "latitude": 31.2630983,
        "longitude": 29.9951977
    },
    {
        "osm_id": "node/5186532750",
        "governorate": "القاهرة",
        "name": "Mahmoud Eye Surgery Centre",
        "address": "Mahmoud Eye Surgery Centre، شارع ابو الفدا، ابو الفدا، الزمالك، القاهرة",
        "latitude": 30.0657467,
        "longitude": 31.2154842
    },
    {
        "osm_id": "node/5200295222",
        "governorate": "الإسكندرية",
        "name": "ASM E.2 (الميري مدخل ٢)",
        "address": "ASM E.2، شارع دكتور محمود صلاح الدين، المسله شرق، الإسكندرية",
        "latitude": 31.2017726,
        "longitude": 29.9041544
    },
    {
        "osm_id": "node/5280869323",
        "governorate": "البحر الأحمر",
        "name": "وحده الميناء",
        "address": "وحده الميناء، شارع شدوان، الميناء، مارينا الغردقة، الغردقة، البحر الأحمر",
        "latitude": 27.2300378,
        "longitude": 33.8413404
    },
    {
        "osm_id": "node/5314820424",
        "governorate": "القاهرة",
        "name": "المشرق للعيون",
        "address": "المشرق للعيون، شارع السيد الميرغنى، مصر الجديدة، القاهرة",
        "latitude": 30.0850693,
        "longitude": 31.3309778
    },
    {
        "osm_id": "node/5314820724",
        "governorate": "القاهرة",
        "name": "مركز الدكتور محمد حامد للعيون",
        "address": "مركز الدكتور محمد حامد للعيون، شارع الحجاز الجانبى، قسم مصر الجديدة، مصر الجديدة، القاهرة",
        "latitude": 30.1026758,
        "longitude": 31.3266103
    },
    {
        "osm_id": "node/5315862132",
        "governorate": "الإسكندرية",
        "name": "الوحدة الصحية أبيس 7",
        "address": "الوحدة الصحية أبيس 7، الطريق الساحلى الدولى، الإسكندرية",
        "latitude": 31.1484562,
        "longitude": 29.955702
    },
    {
        "osm_id": "node/5350940121",
        "governorate": "القاهرة",
        "name": "مستشفى البنك الاهلي",
        "address": "مستشفى البنك الاهلي، الطريق الدائري، بالم سيتي، تاج سيتي، مدينة نصر، القاهرة",
        "latitude": 29.9825257,
        "longitude": 31.345959
    },
    {
        "osm_id": "node/5383244422",
        "governorate": "القاهرة",
        "name": "Golf Memorial Hospital",
        "address": "Golf Memorial Hospital، شارع اسماء فهمى، الجولف، مدينة نصر، القاهرة",
        "latitude": 30.0790241,
        "longitude": 31.3372837
    },
    {
        "osm_id": "node/5417944724",
        "governorate": "القاهرة",
        "name": "مركز 73 متر",
        "address": "مركز 73 متر، الطريق الشرقى، مدينة الشروق، الشروق، القاهرة",
        "latitude": 30.149718,
        "longitude": 31.6579092
    },
    {
        "osm_id": "node/5420112979",
        "governorate": "سوهاج",
        "name": "وحده صحه بندار الشرقيه",
        "address": "وحده صحه بندار الشرقيه، شارع عبد المنعم رياض، بندار الشرقيه، مدينه جرجا، سوهاج",
        "latitude": 26.3669943,
        "longitude": 31.846848
    },
    {
        "osm_id": "node/5475557322",
        "governorate": "القاهرة",
        "name": "مغربي للعيون (Magrabi Eye Hospital)",
        "address": "مغربي للعيون، شارع الاشراف، درب غزيه، عين الصيرة، القاهرة",
        "latitude": 30.0232965,
        "longitude": 31.2513977
    },
    {
        "osm_id": "node/5503724260",
        "governorate": "الجيزة",
        "name": "GERMAN VETERINARY HOSPITAL EGYPT",
        "address": "GERMAN VETERINARY HOSPITAL EGYPT، شارع 56، الحى 1، الشيخ زايد، الجيزة",
        "latitude": 30.0335965,
        "longitude": 31.011445
    },
    {
        "osm_id": "node/5551667834",
        "governorate": "دمياط",
        "name": "Ras El Bar Hospital",
        "address": "Ras El Bar Hospital، شارع المديريه، رأس البر، دمياط",
        "latitude": 31.5159327,
        "longitude": 31.8357253
    },
    {
        "osm_id": "node/5551680466",
        "governorate": "دمياط",
        "name": "مستشفي الدلتا (Delta Hosbital)",
        "address": "مستشفي الدلتا، شارع 99، رأس البر، دمياط",
        "latitude": 31.5007282,
        "longitude": 31.8265419
    },
    {
        "osm_id": "node/5572455024",
        "governorate": "الشرقية",
        "name": "مستشفى الغندور بلبيس (Ghandour hospital Belbis)",
        "address": "مستشفى الغندور بلبيس، شارع 8، مدينة بلبيس، بلبيس، الشرقية",
        "latitude": 30.4221577,
        "longitude": 31.5719934
    },
    {
        "osm_id": "node/5587465366",
        "governorate": "الدقهلية",
        "name": "Tabarak Hospital",
        "address": "Tabarak Hospital، شارع مأمون الشناوي، سابع البحر الصغير، المنصورة، الدقهلية",
        "latitude": 31.0457302,
        "longitude": 31.39453
    },
    {
        "osm_id": "node/5628663421",
        "governorate": "القاهرة",
        "name": "برج الأطباء",
        "address": "برج الأطباء، شارع المقريزي، قسم مصر الجديدة، كوبري القبة، القاهرة",
        "latitude": 30.0905778,
        "longitude": 31.3079294
    },
    {
        "osm_id": "node/5734327542",
        "governorate": "دمياط",
        "name": "مركز كيوان للعلاج الطبيعي والتخسيس",
        "address": "مركز كيوان للعلاج الطبيعي والتخسيس، طريق السيالة الجديد، دمياط",
        "latitude": 31.4071405,
        "longitude": 31.822604
    },
    {
        "osm_id": "node/5762503853",
        "governorate": "البحر الأحمر",
        "name": "Royal Hospital",
        "address": "Royal Hospital، شارع النصر، الحرية 5، Sakkala، المنطقة الصناعيه، البحر الأحمر",
        "latitude": 27.2239526,
        "longitude": 33.8263382
    },
    {
        "osm_id": "node/5769888882",
        "governorate": "الجيزة",
        "name": "Seniors Dental Clinic",
        "address": "Seniors Dental Clinic، Downtown، Left building، 2nd Floor، شارع دكتور عاطف صدقي، ليجيندا، الجيزة",
        "latitude": 30.0302505,
        "longitude": 31.0008777
    },
    {
        "osm_id": "node/5776366012",
        "governorate": "الغربية",
        "name": "مستشفي مسجد وصبف",
        "address": "مستشفي مسجد وصبف، شارع جسر النيل، قريه سندبسط، الغربية",
        "latitude": 30.6414801,
        "longitude": 31.2668872
    },
    {
        "osm_id": "node/5817986010",
        "governorate": "القاهرة",
        "name": "مستشفى (Hospital)",
        "address": "مستشفى، شارع سليمان بن حرب، التجمع الخامس، حى الشويفات، القاهرة",
        "latitude": 30.0147462,
        "longitude": 31.4181409
    },
    {
        "osm_id": "node/5867328034",
        "governorate": "الإسكندرية",
        "name": "الجمعية الشرعية",
        "address": "الجمعية الشرعية، شارع جبريل شماع، الإسكندرية",
        "latitude": 31.2397069,
        "longitude": 29.9933271
    },
    {
        "osm_id": "node/5900240797",
        "governorate": "الدقهلية",
        "name": "التأمين الصحي",
        "address": "التأمين الصحي، شارع العباسي، ثالث ريحان، المنصورة، الدقهلية",
        "latitude": 31.0427801,
        "longitude": 31.3783093
    },
    {
        "osm_id": "node/5948124620",
        "governorate": "الإسكندرية",
        "name": "مستشفى الفتح",
        "address": "مستشفى الفتح، شارع متفرع من شارع الفتح، فلمنج، الزاهرية، الإسكندرية",
        "latitude": 31.2343075,
        "longitude": 29.9639451
    },
    {
        "osm_id": "node/5948127094",
        "governorate": "الإسكندرية",
        "name": "مستشفى البترول بالإسكندرية (Petroleum Hospital in Alexandria)",
        "address": "مستشفى البترول بالإسكندرية، شارع الفتح، فلمنج، الزاهرية، الإسكندرية",
        "latitude": 31.2345278,
        "longitude": 29.9626566
    },
    {
        "osm_id": "node/5984828885",
        "governorate": "دمياط",
        "name": "المستشفى العسكرى دمياط الجديده",
        "address": "المستشفى العسكرى دمياط الجديده، شارع جمال عبد الناصر الجانبى، مدينة دمياط الجديدة، دمياط الجديدة، دمياط",
        "latitude": 31.440234,
        "longitude": 31.6920654
    },
    {
        "osm_id": "node/6080046486",
        "governorate": "الإسكندرية",
        "name": "مستشفى الملاح - مستشفى البدراوي ٢ (Al Mallah Hospital)",
        "address": "مستشفى الملاح - مستشفى البدراوي ٢، شارع محمد نجيب، الإسكندرية",
        "latitude": 31.2553539,
        "longitude": 29.9850196
    },
    {
        "osm_id": "node/6092176485",
        "governorate": "القاهرة",
        "name": "مستشفى جراحات اليوم الواحد بالمعادي الجديدة (one day surgries hospital)",
        "address": "مستشفى جراحات اليوم الواحد بالمعادي الجديدة، شارع 500، المعادي الجديدة، المعادى، القاهرة",
        "latitude": 29.9876238,
        "longitude": 31.2772995
    },
    {
        "osm_id": "node/6093260385",
        "governorate": "الإسكندرية",
        "name": "مستشفى فكتوريا (Victoria Hospital)",
        "address": "مستشفى فكتوريا، شارع فليب جلاد، الإسكندرية",
        "latitude": 31.2439359,
        "longitude": 29.9821849
    },
    {
        "osm_id": "node/6093262085",
        "governorate": "الإسكندرية",
        "name": "مستشفى لواء الإسلام",
        "address": "مستشفى لواء الإسلام، شارع اولياء الرحمن، الإسكندرية",
        "latitude": 31.2442273,
        "longitude": 29.9867739
    },
    {
        "osm_id": "node/6110860686",
        "governorate": "الإسكندرية",
        "name": "مستشفى طلبة جامعة الإسكندرية",
        "address": "مستشفى طلبة جامعة الإسكندرية، شارع خلف النجده، الشاطبى، الإسكندرية",
        "latitude": 31.2028128,
        "longitude": 29.9199829
    },
    {
        "osm_id": "node/6115961588",
        "governorate": "الإسكندرية",
        "name": "مستشفى سيدي جابر التخصصي",
        "address": "مستشفى سيدي جابر التخصصي، شارع جمال عبد الناصر، الرياضه، إبراهيمية، الإسكندرية",
        "latitude": 31.219401,
        "longitude": 29.9414862
    },
    {
        "osm_id": "node/6149871174",
        "governorate": "الإسكندرية",
        "name": "Ahmed Maher Hospital",
        "address": "Ahmed Maher Hospital، شارع الوراق، المرغني، الإسكندرية",
        "latitude": 31.1911004,
        "longitude": 29.9029881
    },
    {
        "osm_id": "node/6176570230",
        "governorate": "القاهرة",
        "name": "المستشفى الأمريكى",
        "address": "المستشفى الأمريكى، شارع محمد سليم، شيراتون، القاهرة",
        "latitude": 30.1033833,
        "longitude": 31.3779264
    },
    {
        "osm_id": "node/6263853464",
        "governorate": "الدقهلية",
        "name": "الوحدة الصحية بجمصة",
        "address": "الوحدة الصحية بجمصة، الطريق الساحلى الدولى، جمصة، الدقهلية",
        "latitude": 31.4355738,
        "longitude": 31.5589591
    },
    {
        "osm_id": "node/6371119888",
        "governorate": "الإسكندرية",
        "name": "الهلال الأحمر المصري - فرع الإسكندرية - باكوس",
        "address": "الهلال الأحمر المصري - فرع الإسكندرية - باكوس، شارع عبد الرحمن الرافعى، باكوس، الزاهرية، الإسكندرية",
        "latitude": 31.2320812,
        "longitude": 29.9703691
    },
    {
        "osm_id": "node/6371769385",
        "governorate": "المنيا",
        "name": "مستشفي بالمنيا (Almenia.hospitalss)",
        "address": "مستشفي بالمنيا، شارع الحسين، سيد جلال، المنيا",
        "latitude": 28.1011077,
        "longitude": 30.7545085
    },
    {
        "osm_id": "node/6372854086",
        "governorate": "الإسكندرية",
        "name": "مستشفى لوران (Louran Hospital)",
        "address": "مستشفى لوران، شارع شعراوى، القصعى بحرى، الإسكندرية",
        "latitude": 31.2478922,
        "longitude": 29.9736309
    },
    {
        "osm_id": "node/6373641081",
        "governorate": "الشرقية",
        "name": "الوحدة الصحية",
        "address": "الوحدة الصحية، شارع اخر البلد، البساينة، أبو كبير، الشرقية",
        "latitude": 30.781246,
        "longitude": 31.6875548
    },
    {
        "osm_id": "node/6411889485",
        "governorate": "الأقصر",
        "name": "مستشفى إسنا (Esna hospital)",
        "address": "مستشفى إسنا، شارع البحر الجديد، إسنا، Isna، الأقصر",
        "latitude": 25.3024614,
        "longitude": 32.5540586
    },
    {
        "osm_id": "node/6443281834",
        "governorate": "الإسكندرية",
        "name": "مستشفى سموحة الدولي",
        "address": "مستشفى سموحة الدولي، شارع ذكى رجب، الحضره قبلى، إبراهيمية، الإسكندرية",
        "latitude": 31.2083152,
        "longitude": 29.9348175
    },
    {
        "osm_id": "node/6500318660",
        "governorate": "القاهرة",
        "name": "One Day Surgeries Hospital",
        "address": "One Day Surgeries Hospital، شارع بورسعيد، مساكن الزاويه الحمراء، الأميرية، القاهرة",
        "latitude": 30.0874718,
        "longitude": 31.2731182
    },
    {
        "osm_id": "node/6509448487",
        "governorate": "الإسكندرية",
        "name": "مستشفى الإقبال",
        "address": "مستشفى الإقبال، شارع حسن امين، الإسكندرية",
        "latitude": 31.251513,
        "longitude": 29.9753775
    },
    {
        "osm_id": "node/6572089485",
        "governorate": "الإسكندرية",
        "name": "مستشفى زمزم",
        "address": "مستشفى زمزم، شارع حسين عامر، الباب الجديد غرب و منشا، الشاطبى، الإسكندرية",
        "latitude": 31.1952169,
        "longitude": 29.9125867
    },
    {
        "osm_id": "node/6582032777",
        "governorate": "القاهرة",
        "name": "مستشفى عامة",
        "address": "شارع 17، الشرق للتأمين، الخليفة، القاهرة",
        "latitude": 30.0160045,
        "longitude": 31.2917528
    },
    {
        "osm_id": "node/6586989894",
        "governorate": "القاهرة",
        "name": "مستشفى البتول (El Batol Hospital)",
        "address": "مستشفى البتول، شارع الشيخ نصر الهوريني، شريف، الشرابية، القاهرة",
        "latitude": 30.0947545,
        "longitude": 31.2490967
    },
    {
        "osm_id": "node/6595817693",
        "governorate": "القاهرة",
        "name": "El Nakhel Hospital",
        "address": "El Nakhel Hospital، شارع سيد عنبر، المعادي الجديدة، حلوان، القاهرة",
        "latitude": 29.9734067,
        "longitude": 31.2817941
    },
    {
        "osm_id": "node/6644423452",
        "governorate": "الشرقية",
        "name": "Sekem Medical Centre",
        "address": "Sekem Medical Centre، طريق مستشفى سيكم، العاشر من رمضان، الشرقية",
        "latitude": 30.417604,
        "longitude": 31.6355301
    },
    {
        "osm_id": "node/6743975794",
        "governorate": "القاهرة",
        "name": "Elsalam Hospital مستشفى السلام",
        "address": "Elsalam Hospital مستشفى السلام، شارع احمد عصمت، عين شمس، القاهرة",
        "latitude": 30.127331,
        "longitude": 31.3274532
    },
    {
        "osm_id": "node/6784633286",
        "governorate": "مطروح",
        "name": "مستشفى عرابي التخصصي (Orabi Specialist Hospital)",
        "address": "مستشفى عرابي التخصصي، شارع عبد الله عيسي، محدرة، مرسى مطروح، مطروح",
        "latitude": 31.3512468,
        "longitude": 27.2430948
    },
    {
        "osm_id": "node/6795952385",
        "governorate": "القاهرة",
        "name": "مستشفى الرحمة التخصصي (Al Rahma specialized Hospital)",
        "address": "مستشفى الرحمة التخصصي، شارع الإسكندرية، قسم مصر الجديدة، مصر الجديدة، القاهرة",
        "latitude": 30.0983618,
        "longitude": 31.3312422
    },
    {
        "osm_id": "node/6796349005",
        "governorate": "الإسكندرية",
        "name": "مستشفى سهلا الجديدة",
        "address": "مستشفى سهلا الجديدة، حارة قاسم، الباب الجديد غرب و منشا، الشاطبى، الإسكندرية",
        "latitude": 31.1910639,
        "longitude": 29.9085547
    },
    {
        "osm_id": "node/6948109927",
        "governorate": "الإسكندرية",
        "name": "دكتور ممدوح حسين لطب الاطفال",
        "address": "دكتور ممدوح حسين لطب الاطفال، شارع الروضة 1، مساكن تعاونيات سموحه، الإسكندرية",
        "latitude": 31.2072614,
        "longitude": 29.9531454
    },
    {
        "osm_id": "node/6948853990",
        "governorate": "الإسكندرية",
        "name": "مستشفي اسكندرية الدولي",
        "address": "مستشفي اسكندرية الدولي، شارع محمد بهاء الدين غاتورى، الإسكندرية",
        "latitude": 31.2158369,
        "longitude": 29.941974
    },
    {
        "osm_id": "node/6970489318",
        "governorate": "القاهرة",
        "name": "Bright dental center",
        "address": "Bright dental center، شارع احمد عصمت، عين شمس، القاهرة",
        "latitude": 30.1292933,
        "longitude": 31.3207353
    },
    {
        "osm_id": "node/6982945486",
        "governorate": "الإسكندرية",
        "name": "النصر الشاملة (El Shamla hospital)",
        "address": "النصر الشاملة، شارع المكس، القباري، الإسكندرية",
        "latitude": 31.1698343,
        "longitude": 29.8708821
    },
    {
        "osm_id": "node/7022378617",
        "governorate": "بورسعيد",
        "name": "Alglaa Pharmacy portsaid - صيدلية الجلاء بورسعيد",
        "address": "Alglaa Pharmacy portsaid - صيدلية الجلاء بورسعيد، شارع ابى هريره، الزهور، مساكن ٥٠٠٠، بورسعيد",
        "latitude": 31.2675342,
        "longitude": 32.2703428
    },
    {
        "osm_id": "node/7146563486",
        "governorate": "البحر الأحمر",
        "name": "El Kawser Private Hospital",
        "address": "El Kawser Private Hospital، شارع الفندق، مساكن مبارك 2، Mubarak 2، الهضبة، البحر الأحمر",
        "latitude": 27.198284,
        "longitude": 33.8267656
    },
    {
        "osm_id": "node/7288659118",
        "governorate": "سوهاج",
        "name": "Family clinic عيادات الاسرة",
        "address": "Family clinic عيادات الاسرة، Girga، شارع الشيخ عبد الجواد المناقيشي، مدينه جرجا، سوهاج",
        "latitude": 26.3470237,
        "longitude": 31.8873904
    },
    {
        "osm_id": "node/7464934905",
        "governorate": "المنوفية",
        "name": "مستوصف السيدة العذراء",
        "address": "مستوصف السيدة العذراء، درب سعفان، شبين الكوم، المنوفية",
        "latitude": 30.5525503,
        "longitude": 31.0068038
    },
    {
        "osm_id": "node/7467342543",
        "governorate": "كفر الشيخ",
        "name": "bakr dental clinic",
        "address": "bakr dental clinic، 6R، شارع فريد ندا، كفر الشيخ",
        "latitude": 31.1154724,
        "longitude": 30.9341442
    },
    {
        "osm_id": "node/7635900880",
        "governorate": "القاهرة",
        "name": "Pharmancy",
        "address": "Pharmancy، شارع الاسراء، المعادي الجديدة، حلوان، القاهرة",
        "latitude": 29.9811655,
        "longitude": 31.315031
    },
    {
        "osm_id": "node/7968247693",
        "governorate": "الجيزة",
        "name": "الوحدة الصحية بطناش",
        "address": "الوحدة الصحية بطناش، شارع عبد الفتاح الشعراوى، طناش، الجيزة",
        "latitude": 30.1241237,
        "longitude": 31.1922102
    },
    {
        "osm_id": "node/8343379230",
        "governorate": "القاهرة",
        "name": "مستشفى هيئة النقل العام",
        "address": "مستشفى هيئة النقل العام، شارع عبد الخالق ثروت، معروف، باب الشعرية، القاهرة",
        "latitude": 30.051386,
        "longitude": 31.2383746
    },
    {
        "osm_id": "node/8378236702",
        "governorate": "البحيرة",
        "name": "مركز الثقافة العمالية بكفر الدوار",
        "address": "مركز الثقافة العمالية بكفر الدوار، شارع احمد عرابى، شركه مصر للغزل والنسيج، كفر الدوار، البحيرة",
        "latitude": 31.1388502,
        "longitude": 30.1223348
    },
    {
        "osm_id": "node/8405405096",
        "governorate": "الجيزة",
        "name": "Rofayda Maternity Hospital",
        "address": "Rofayda Maternity Hospital، شارع الزهور، الشيخ زايد، الجيزة",
        "latitude": 30.0218222,
        "longitude": 31.0067546
    },
    {
        "osm_id": "node/8411329877",
        "governorate": "القاهرة",
        "name": "مستشفى الحياة التخصصى",
        "address": "مستشفى الحياة التخصصى، شارع الخبير، كوبري القبة، القاهرة",
        "latitude": 30.0883955,
        "longitude": 31.2990484
    },
    {
        "osm_id": "node/8496848667",
        "governorate": "القاهرة",
        "name": "مستشفى دكتور عادل صادق لعلاج الامراض النفسية و الإدمان (Doctor Adel Sadek Hospital for the treatment of mental illnesses and addictions)",
        "address": "مستشفى دكتور عادل صادق لعلاج الامراض النفسية و الإدمان، شارع احمد عبد النبى، القاهرة",
        "latitude": 30.1218731,
        "longitude": 31.3664536
    },
    {
        "osm_id": "node/8676620117",
        "governorate": "الجيزة",
        "name": "المركز الطبى",
        "address": "المركز الطبى، شارع البنفسج، الإسكان الإجتماعي، السادس من أكتوبر، الجيزة",
        "latitude": 29.8875138,
        "longitude": 31.0663286
    },
    {
        "osm_id": "node/8679556020",
        "governorate": "الإسكندرية",
        "name": "المستشفى الألماني  مركز القلب الألماني (German Hospital and Cardiac Center)",
        "address": "المستشفى الألماني  مركز القلب الألماني، شارع عبد السلام عارف، فلمنج، الإسكندرية",
        "latitude": 31.2370413,
        "longitude": 29.9576749
    },
    {
        "osm_id": "node/8764103655",
        "governorate": "الدقهلية",
        "name": "برنامج متابعة وليدك (2) - العيادات التخصصية",
        "address": "برنامج متابعة وليدك (2) - العيادات التخصصية، شارع جيهان السادات، اول ميت طلخا، طلخا، الدقهلية",
        "latitude": 31.0442384,
        "longitude": 31.3655781
    },
    {
        "osm_id": "node/8819019261",
        "governorate": "المنوفية",
        "name": "الوحدة الصحية بقرية المقاطع",
        "address": "الوحدة الصحية بقرية المقاطع، طريق المقاطع، مناوهله، شبين الكوم، المنوفية",
        "latitude": 30.4702651,
        "longitude": 31.0724737
    },
    {
        "osm_id": "node/8968577939",
        "governorate": "مطروح",
        "name": "مستشفي برج العرب العام",
        "address": "مستشفي برج العرب العام، شارع 59أ، الحى 1، New Borg el-Arab، مطروح",
        "latitude": 30.8831696,
        "longitude": 29.5737539
    },
    {
        "osm_id": "node/9006511017",
        "governorate": "الإسكندرية",
        "name": "المسشتفى التخصصي لامراض الجهاز الهضمي والكبد",
        "address": "المسشتفى التخصصي لامراض الجهاز الهضمي والكبد، شارع جمال عبد الناصر، فلمنج، الزاهرية، الإسكندرية",
        "latitude": 31.2392452,
        "longitude": 29.96397
    },
    {
        "osm_id": "node/9080144789",
        "governorate": "البحر الأحمر",
        "name": "مستشفى عامة",
        "address": "بور غالب، البحر الأحمر",
        "latitude": 25.5409083,
        "longitude": 34.6167438
    },
    {
        "osm_id": "node/9349213302",
        "governorate": "الإسكندرية",
        "name": "Alsalama Hospital",
        "address": "Alsalama Hospital، شارع الشهيد صلاح مصطفى، المسله شرق، الشاطبى، الإسكندرية",
        "latitude": 31.2018205,
        "longitude": 29.9101858
    },
    {
        "osm_id": "node/9385788533",
        "governorate": "جنوب سيناء",
        "name": "مستشفى عيادة سيناء (Sinai Clinic Hospital)",
        "address": "مستشفى عيادة سيناء، شارع البنوك، هضبه ام السيد، شرم القديمة، شرم الشيخ، رأس أم سد، جنوب سيناء",
        "latitude": 27.8609939,
        "longitude": 34.3044144
    },
    {
        "osm_id": "node/9509648007",
        "governorate": "القاهرة",
        "name": "دار السلام للأورام (هرمل)",
        "address": "دار السلام للأورام (هرمل)، شارع كورنيش النيل، الكفور وساعي البحر، مصر القديمة، أثر النبي، القاهرة",
        "latitude": 30.0125466,
        "longitude": 31.2289619
    },
    {
        "osm_id": "node/9568706448",
        "governorate": "الجيزة",
        "name": "مستشفى الجابري",
        "address": "مستشفى الجابري، شارع الملك فيصل، كوم الأخضر، الجيزة",
        "latitude": 29.9956129,
        "longitude": 31.1514353
    },
    {
        "osm_id": "node/9568725004",
        "governorate": "الجيزة",
        "name": "مستشفى شبرامنت المركزي",
        "address": "مستشفى شبرامنت المركزي، طريق سقاره السياحى، شبرمنت، الجيزة",
        "latitude": 29.9455923,
        "longitude": 31.188481
    },
    {
        "osm_id": "node/9612404216",
        "governorate": "القاهرة",
        "name": "مستشفى عامة",
        "address": "Al Khalifa Al Rashideen Specialized Hospital، شارع السباق، قسم مصر الجديدة، مصر الجديدة، القاهرة",
        "latitude": 30.1017279,
        "longitude": 31.3237646
    },
    {
        "osm_id": "node/9648152027",
        "governorate": "الإسكندرية",
        "name": "Department for Internal Medicine",
        "address": "Department for Internal Medicine، شارع الاسكندر الاكبر، المسله شرق، الشاطبى، الإسكندرية",
        "latitude": 31.2025983,
        "longitude": 29.9059535
    },
    {
        "osm_id": "node/9651950237",
        "governorate": "الجيزة",
        "name": "مستشفى الحبيب التخصصي",
        "address": "مستشفى الحبيب التخصصي، شارع الملك فيصل، كوم الأخضر، الجيزة",
        "latitude": 29.9967716,
        "longitude": 31.1545246
    },
    {
        "osm_id": "node/9670857598",
        "governorate": "الغربية",
        "name": "مستشفى صدر المحلة (Chest Hospital)",
        "address": "مستشفى صدر المحلة، شارع خلف سور المستعمره، امام الحسينى، الغربية",
        "latitude": 30.9532282,
        "longitude": 31.1498471
    },
    {
        "osm_id": "node/9697106717",
        "governorate": "القاهرة",
        "name": "مستشفى الصفوة (Alsafwa Hospital)",
        "address": "مستشفى الصفوة، شارع منيه السيرج، شريف، الشرابية، القاهرة",
        "latitude": 30.0926606,
        "longitude": 31.2459649
    },
    {
        "osm_id": "node/9750285595",
        "governorate": "القاهرة",
        "name": "Dr. Hani Allawy Clinic",
        "address": "Dr. Hani Allawy Clinic، شارع اللواء طارق صلاح، مدينة المستقبل، الشروق، القاهرة",
        "latitude": 30.1636403,
        "longitude": 31.5533044
    },
    {
        "osm_id": "node/9762746673",
        "governorate": "الجيزة",
        "name": "مستشفى الرحاب التخصصي",
        "address": "مستشفى الرحاب التخصصي، شارع رشاد زكي حسان، كوم الأخضر، الجيزة",
        "latitude": 29.9926236,
        "longitude": 31.163256
    },
    {
        "osm_id": "node/9764636806",
        "governorate": "القاهرة",
        "name": "مستشفي جمال الدين الافغاني (Jamal Al Din Afghani Hospital)",
        "address": "مستشفي جمال الدين الافغاني، ميدان الجامع، قسم مصر الجديدة، مصر الجديدة، القاهرة",
        "latitude": 30.0965609,
        "longitude": 31.3284172
    },
    {
        "osm_id": "node/9787616082",
        "governorate": "المنيا",
        "name": "مستشفي العروة الوثقي",
        "address": "مستشفي العروة الوثقي، شارع التحرير، مدينه الفكريه، المنيا",
        "latitude": 27.9324626,
        "longitude": 30.8216168
    },
    {
        "osm_id": "node/9787616090",
        "governorate": "المنيا",
        "name": "مستشفي الفكرية العام",
        "address": "مستشفي الفكرية العام، شارع ابى بكر الصديق، مدينه الفكريه، المنيا",
        "latitude": 27.9372015,
        "longitude": 30.8232068
    },
    {
        "osm_id": "node/9809753775",
        "governorate": "الجيزة",
        "name": "مستشفى بهيه لعلاج سرطان الثدي",
        "address": "مستشفى بهيه لعلاج سرطان الثدي، شارع علوبه، الجيزة",
        "latitude": 30.0047923,
        "longitude": 31.1866866
    },
    {
        "osm_id": "node/9850700146",
        "governorate": "القاهرة",
        "name": "مستشفي سانت ريتا (Sant Rita Hospital)",
        "address": "مستشفي سانت ريتا، شارع عثمان بن عفان، قسم مصر الجديدة، مصر الجديدة، القاهرة",
        "latitude": 30.093916,
        "longitude": 31.3269916
    },
    {
        "osm_id": "node/9974960728",
        "governorate": "المنوفية",
        "name": "home",
        "address": "home، شارع حسنى مبارك، شبين الكوم، المنوفية",
        "latitude": 30.5499895,
        "longitude": 31.0217183
    },
    {
        "osm_id": "node/9974961422",
        "governorate": "القاهرة",
        "name": "مستشفى الحلميه العسكرى",
        "address": "مستشفى الحلميه العسكرى، شارع سليم الاول، مصر الجديدة، القاهرة",
        "latitude": 30.1139213,
        "longitude": 31.3182019
    },
    {
        "osm_id": "node/10033391519",
        "governorate": "القاهرة",
        "name": "المركز الطبى العالمى (International Medical Center)",
        "address": "المركز الطبى العالمى، 42 km، طريق القاهرة، الاسماعيليه الصحراوي، مدينة الشروق، القاهرة",
        "latitude": 30.1932457,
        "longitude": 31.6582147
    },
    {
        "osm_id": "node/10090674554",
        "governorate": "الشرقية",
        "name": "مستشفى عامة",
        "address": "شارع النصر، مدينه فاقوس، الشرقية",
        "latitude": 30.7307718,
        "longitude": 31.7928647
    },
    {
        "osm_id": "node/10207020117",
        "governorate": "القليوبية",
        "name": "مستشفى فريد حبيب",
        "address": "مستشفى فريد حبيب، شارع حامد جوهر، بلوك 16077، العبور، القليوبية",
        "latitude": 30.2221383,
        "longitude": 31.4826926
    },
    {
        "osm_id": "node/10222968799",
        "governorate": "الإسكندرية",
        "name": "مستشفى عامة",
        "address": "شارع المأمون ابو شوشة، الشاطبى، الإسكندرية",
        "latitude": 31.2033913,
        "longitude": 29.9097886
    },
    {
        "osm_id": "node/10280525304",
        "governorate": "القاهرة",
        "name": "مركز الدرة التخصصي للعيون (Durrah Eye Center)",
        "address": "مركز الدرة التخصصي للعيون، شارع نبيل الوقاد، الجولف، مدينة نصر، القاهرة",
        "latitude": 30.0807161,
        "longitude": 31.332632
    },
    {
        "osm_id": "node/10310788409",
        "governorate": "القاهرة",
        "name": "مستشفي بدر الجامعي - جامعة حلوان",
        "address": "مستشفي بدر الجامعي - جامعة حلوان، شارع المشير احمد بدوى الجانبى، المنطقة الترفيهية، بدر، القاهرة",
        "latitude": 30.1451471,
        "longitude": 31.7233948
    },
    {
        "osm_id": "node/10570500010",
        "governorate": "جنوب سيناء",
        "name": "Mountain View hospital",
        "address": "Mountain View hospital، شارع المطافى، مساكن مبارك، عصلة، دهب، جنوب سيناء",
        "latitude": 28.5138493,
        "longitude": 34.5103373
    },
    {
        "osm_id": "node/10651046978",
        "governorate": "الدقهلية",
        "name": "الوحدة الصحية بالعصافرة (Al-Asafra Health Center)",
        "address": "الوحدة الصحية بالعصافرة، شارع سعد زغلول، العصافرة، الدقهلية",
        "latitude": 31.1715054,
        "longitude": 32.017292
    },
    {
        "osm_id": "node/10676089794",
        "governorate": "الفيوم",
        "name": "Dr. Ahmed Zidan Center",
        "address": "Dr. Ahmed Zidan Center، شارع الورشة، قسم رابع، الفيوم",
        "latitude": 29.3073584,
        "longitude": 30.8499091
    },
    {
        "osm_id": "node/10737990659",
        "governorate": "جنوب سيناء",
        "name": "مستشفى عامة",
        "address": "شارع المستشفى، Ras Sudr، جنوب سيناء",
        "latitude": 29.5880547,
        "longitude": 32.7120495
    },
    {
        "osm_id": "node/10749393305",
        "governorate": "المنوفية",
        "name": "Shintina Alhajar Tropical",
        "address": "Shintina Alhajar Tropical، شارع تلا، المنوفية",
        "latitude": 30.6481232,
        "longitude": 31.0534087
    },
    {
        "osm_id": "node/10784198106",
        "governorate": "الجيزة",
        "name": "مستشفى أكتوبر كلينيك",
        "address": "مستشفى أكتوبر كلينيك، شارع عبد المنعم رياض، القرية السياحية 5، قرية جاردينيا بارك، السادس من أكتوبر، الجيزة",
        "latitude": 29.9837245,
        "longitude": 30.9843773
    },
    {
        "osm_id": "node/10925249053",
        "governorate": "المنيا",
        "name": "الراعي الصالح",
        "address": "الراعي الصالح، شارع الجمهوريه، مدينه سمالوط، المنيا",
        "latitude": 28.3191358,
        "longitude": 30.7071597
    },
    {
        "osm_id": "node/11027293553",
        "governorate": "القاهرة",
        "name": "مستشفى عين الحياة",
        "address": "مستشفى عين الحياة، شارع النصر، القاهرة",
        "latitude": 30.1223025,
        "longitude": 31.3724291
    },
    {
        "osm_id": "node/11050738962",
        "governorate": "الدقهلية",
        "name": "الوحدة الصحية بقرية دروة",
        "address": "الوحدة الصحية بقرية دروة، شارع فتحي ابو والي، الدقهلية",
        "latitude": 30.8663667,
        "longitude": 31.3623926
    },
    {
        "osm_id": "node/11210315591",
        "governorate": "الشرقية",
        "name": "مستشفي الجامعة",
        "address": "مستشفي الجامعة، شارع ابو بكر الصديق، مركز المال والأعمال، العاشر من رمضان، الشرقية",
        "latitude": 30.3238623,
        "longitude": 31.7320924
    },
    {
        "osm_id": "node/11257108018",
        "governorate": "القاهرة",
        "name": "مستشفى حسام شلبي للولادة",
        "address": "مستشفى حسام شلبي للولادة، شارع بورسعيد، معادي الخبيري، الفاروقية، القاهرة",
        "latitude": 29.9611824,
        "longitude": 31.2631753
    },
    {
        "osm_id": "node/11278273768",
        "governorate": "القاهرة",
        "name": "عيادات شارع 9",
        "address": "عيادات شارع 9، شارع جامع القدس، الشرق للتأمين، القاهرة",
        "latitude": 30.0116999,
        "longitude": 31.3031698
    },
    {
        "osm_id": "node/11366207025",
        "governorate": "القاهرة",
        "name": "Pearl Hospitals",
        "address": "Pearl Hospitals، شارع الحرمين، المعادي الجديدة، حلوان، القاهرة",
        "latitude": 29.9740094,
        "longitude": 31.3334192
    },
    {
        "osm_id": "node/11385674029",
        "governorate": "أسوان",
        "name": "Abu Simbel International Hospital",
        "address": "Abu Simbel International Hospital، شارع المعبد، قريه الفراعنة، مدينة أبو سمبل، أسوان",
        "latitude": 22.3489148,
        "longitude": 31.619052
    },
    {
        "osm_id": "node/11428395042",
        "governorate": "الإسكندرية",
        "name": "مستشفي الإمام (Al Imam Hospital)",
        "address": "مستشفي الإمام، شارع الإمام الاكبر عبد الحليم محمود، المندرة، الإسكندرية",
        "latitude": 31.2749094,
        "longitude": 30.0062183
    },
    {
        "osm_id": "node/11498990369",
        "governorate": "القاهرة",
        "name": "صيدليه ضحي",
        "address": "صيدليه ضحي، شارع 39، وادي حوف، حلوان، القاهرة",
        "latitude": 29.8817535,
        "longitude": 31.3081906
    },
    {
        "osm_id": "node/11589018926",
        "governorate": "الجيزة",
        "name": "مستشفى عامة",
        "address": "شارع طراد النيل، نزلة الجبرية، الجيزة",
        "latitude": 29.829117,
        "longitude": 31.2922157
    },
    {
        "osm_id": "node/11687442021",
        "governorate": "الجيزة",
        "name": "الوحده الصحيه بأبو صير",
        "address": "الوحده الصحيه بأبو صير، طريق أبو صير، أبو صير، الجيزة",
        "latitude": 29.8925338,
        "longitude": 31.2204031
    },
    {
        "osm_id": "node/11717365888",
        "governorate": "الأقصر",
        "name": "مستشفى عامة",
        "address": "طريق الكباش، الكرنك القديم، الأقصر",
        "latitude": 25.7082575,
        "longitude": 32.6489707
    },
    {
        "osm_id": "node/11828714323",
        "governorate": "البحر الأحمر",
        "name": "مستشفى عامة",
        "address": "شارع الفندق، القرى السياحية، Mubarak 2، الغردقة، البحر الأحمر",
        "latitude": 27.1970938,
        "longitude": 33.8268886
    },
    {
        "osm_id": "node/11936598969",
        "governorate": "جنوب سيناء",
        "name": "مستشفى عامة",
        "address": "больница для туристов по страховке، طريق السلام، خليج نعمه، خليج نعامة، شرم الشيخ، رأس أم سد، جنوب سيناء",
        "latitude": 27.9060362,
        "longitude": 34.3147939
    },
    {
        "osm_id": "node/11959610699",
        "governorate": "الجيزة",
        "name": "مستشفى الجابري",
        "address": "مستشفى الجابري، شارع الرومالى، الجيزة",
        "latitude": 30.0104051,
        "longitude": 31.1917095
    },
    {
        "osm_id": "node/11959624386",
        "governorate": "الجيزة",
        "name": "مستشفى الجزيرة",
        "address": "مستشفى الجزيرة، شارع اسماعيل الشال، الجيزة",
        "latitude": 30.0101478,
        "longitude": 31.1923522
    },
    {
        "osm_id": "node/12086908690",
        "governorate": "البحر الأحمر",
        "name": "Phisical Therapy Center",
        "address": "Phisical Therapy Center، شارع حسن علام، الهلال، Al Dahar، الغردقة، البحر الأحمر",
        "latitude": 27.2581771,
        "longitude": 33.8066829
    },
    {
        "osm_id": "node/12205946881",
        "governorate": "القاهرة",
        "name": "Kaissar Clinic",
        "address": "Kaissar Clinic، طريق السادات الجانبى، مدينة الشروق، الشروق، القاهرة",
        "latitude": 30.1517332,
        "longitude": 31.6267694
    },
    {
        "osm_id": "node/12205946883",
        "governorate": "القاهرة",
        "name": "معمل ألفا (Alfa Labs)",
        "address": "معمل ألفا، طريق السادات الجانبى، مدينة الشروق، الشروق، القاهرة",
        "latitude": 30.1515997,
        "longitude": 31.6267945
    },
    {
        "osm_id": "node/12278326902",
        "governorate": "البحيرة",
        "name": "مستشفى رشيد العام (Rashid General Hospital)",
        "address": "مستشفى رشيد العام، شارع احمد فؤاد نور، عزبة بهنسي، رشيد، البحيرة",
        "latitude": 31.4069122,
        "longitude": 30.4193311
    },
    {
        "osm_id": "node/12289900501",
        "governorate": "الإسكندرية",
        "name": "Main University Hospital",
        "address": "Main University Hospital، شارع دكتور عبد الواحد الوكيل، المسله شرق، الإسكندرية",
        "latitude": 31.200857,
        "longitude": 29.9054701
    },
    {
        "osm_id": "node/12402732939",
        "governorate": "السويس",
        "name": "Project Land",
        "address": "Project Land، طريق جنيفا، السويس",
        "latitude": 30.0294752,
        "longitude": 32.5426569
    },
    {
        "osm_id": "node/12880601276",
        "governorate": "جنوب سيناء",
        "name": "مستشفى دهب المركزي",
        "address": "مستشفى دهب المركزي، شارع على بن ابى طالب، مدينه دهب، Medina، دهب، جنوب سيناء",
        "latitude": 28.4845118,
        "longitude": 34.4945155
    },
    {
        "osm_id": "node/12887250139",
        "governorate": "القاهرة",
        "name": "مركز طبي النزهة الجديدة",
        "address": "مركز طبي النزهة الجديدة، شارع جوزيف تيتو، القاهرة",
        "latitude": 30.1219136,
        "longitude": 31.3721061
    },
    {
        "osm_id": "node/12895489801",
        "governorate": "القاهرة",
        "name": "مستشفى عبدالقادر فهمي (Abd Al-Kader Fahmy hospital)",
        "address": "مستشفى عبدالقادر فهمي، شارع حسن افلاطون، مساكن المهندسين، مدينة نصر، القاهرة",
        "latitude": 30.0784848,
        "longitude": 31.3444783
    },
    {
        "osm_id": "node/12952190988",
        "governorate": "القاهرة",
        "name": "عيادة الذكورة",
        "address": "عيادة الذكورة، شارع السرايا، المنيل الغربي، المنيل، القاهرة",
        "latitude": 30.0316047,
        "longitude": 31.2284755
    },
    {
        "osm_id": "node/12952190989",
        "governorate": "القاهرة",
        "name": "عيادة العلاج الطبيغى",
        "address": "عيادة العلاج الطبيغى، شارع السرايا، المنيل الغربي، المنيل، القاهرة",
        "latitude": 30.0317477,
        "longitude": 31.228866
    },
    {
        "osm_id": "node/12952190990",
        "governorate": "القاهرة",
        "name": "عيادة الجلدية",
        "address": "عيادة الجلدية، شارع السرايا، المنيل الغربي، المنيل، القاهرة",
        "latitude": 30.0317811,
        "longitude": 31.2285843
    },
    {
        "osm_id": "node/12952190991",
        "governorate": "القاهرة",
        "name": "عيادة السكر و عيادة الغدد و عيادة السمنة و التغذية",
        "address": "عيادة السكر و عيادة الغدد و عيادة السمنة و التغذية، شارع السرايا، المنيل الغربي، المنيل، القاهرة",
        "latitude": 30.0320338,
        "longitude": 31.2290907
    },
    {
        "osm_id": "node/12952190992",
        "governorate": "القاهرة",
        "name": "عيادة الرمد",
        "address": "عيادة الرمد، شارع السرايا، المنيل الغربي، المنيل، القاهرة",
        "latitude": 30.0319818,
        "longitude": 31.2286432
    },
    {
        "osm_id": "node/12952212926",
        "governorate": "القاهرة",
        "name": "مسجد كلية الطب",
        "address": "مسجد كلية الطب، شارع السرايا، المنيل الغربي، المنيل، القاهرة",
        "latitude": 30.0311244,
        "longitude": 31.2291704
    },
    {
        "osm_id": "node/12952212932",
        "governorate": "القاهرة",
        "name": "عيادة الجراحة",
        "address": "عيادة الجراحة، شارع السرايا، المنيل الغربي، المنيل، القاهرة",
        "latitude": 30.0318111,
        "longitude": 31.2284692
    },
    {
        "osm_id": "node/12952212933",
        "governorate": "القاهرة",
        "name": "عيادة الجراحة",
        "address": "عيادة الجراحة، شارع السرايا، المنيل الغربي، المنيل، القاهرة",
        "latitude": 30.0318742,
        "longitude": 31.2282933
    },
    {
        "osm_id": "node/12952212934",
        "governorate": "القاهرة",
        "name": "عيادة الباطنة و عيادة جراحة مخ و اعصاب",
        "address": "عيادة الباطنة و عيادة جراحة مخ و اعصاب، شارع السرايا، المنيل الغربي، المنيل، القاهرة",
        "latitude": 30.0319308,
        "longitude": 31.2281655
    },
    {
        "osm_id": "node/12952409489",
        "governorate": "القاهرة",
        "name": "عيادة العظام",
        "address": "عيادة العظام، شارع السرايا، المنيل الغربي، المنيل، القاهرة",
        "latitude": 30.0320253,
        "longitude": 31.227904
    },
    {
        "osm_id": "node/12952409490",
        "governorate": "القاهرة",
        "name": "عيادة الباطنة و القلب و المتوطنة",
        "address": "عيادة الباطنة و القلب و المتوطنة، شارع السرايا، المنيل الغربي، المنيل، القاهرة",
        "latitude": 30.0317355,
        "longitude": 31.2280885
    },
    {
        "osm_id": "node/12952409491",
        "governorate": "القاهرة",
        "name": "عيادة الروماتزم",
        "address": "عيادة الروماتزم، شارع السرايا، المنيل الغربي، المنيل، القاهرة",
        "latitude": 30.0318302,
        "longitude": 31.2277924
    },
    {
        "osm_id": "node/12952409492",
        "governorate": "القاهرة",
        "name": "عيادة مخ وأعصاب والصدر",
        "address": "عيادة مخ وأعصاب والصدر، شارع السرايا، المنيل الغربي، المنيل، القاهرة",
        "latitude": 30.0321163,
        "longitude": 31.2283203
    },
    {
        "osm_id": "node/12952409493",
        "governorate": "القاهرة",
        "name": "عيادة العلاج الطبيعى",
        "address": "عيادة العلاج الطبيعى، شارع السرايا، المنيل الغربي، المنيل، القاهرة",
        "latitude": 30.0322389,
        "longitude": 31.2280005
    },
    {
        "osm_id": "node/12952409494",
        "governorate": "القاهرة",
        "name": "عيادة السمعيات",
        "address": "عيادة السمعيات، شارع السرايا، المنيل الغربي، المنيل، القاهرة",
        "latitude": 30.0316704,
        "longitude": 31.2282452
    },
    {
        "osm_id": "node/12952409495",
        "governorate": "القاهرة",
        "name": "عيادة أمراض الدم",
        "address": "عيادة أمراض الدم، شارع السرايا، المنيل الغربي، المنيل، القاهرة",
        "latitude": 30.0323652,
        "longitude": 31.2284404
    },
    {
        "osm_id": "node/12952409496",
        "governorate": "القاهرة",
        "name": "ليزر الجلدية",
        "address": "ليزر الجلدية، شارع السرايا، المنيل الغربي، المنيل، القاهرة",
        "latitude": 30.032434,
        "longitude": 31.2282301
    },
    {
        "osm_id": "node/12952435106",
        "governorate": "القاهرة",
        "name": "ليزر الرمد",
        "address": "ليزر الرمد، شارع السرايا، المنيل الغربي، المنيل، القاهرة",
        "latitude": 30.0315237,
        "longitude": 31.2286979
    },
    {
        "osm_id": "node/12952440615",
        "governorate": "القاهرة",
        "name": "مبنى بنك الدم و عيادة طب الأسرة",
        "address": "مبنى بنك الدم و عيادة طب الأسرة، شارع السرايا، المنيل الغربي، المنيل، القاهرة",
        "latitude": 30.0314661,
        "longitude": 31.2291979
    },
    {
        "osm_id": "node/12959320901",
        "governorate": "الجيزة",
        "name": "Dar El Oyun Hospitals",
        "address": "Dar El Oyun Hospitals، شارع الغزالى، بين السرايات، الجيزة",
        "latitude": 30.0385996,
        "longitude": 31.2050636
    },
    {
        "osm_id": "node/13031156201",
        "governorate": "قنا",
        "name": "مستشفي النيل نقادة",
        "address": "مستشفي النيل نقادة، شارع 23 يوليو، نقادة، قنا",
        "latitude": 25.8984282,
        "longitude": 32.7219566
    },
    {
        "osm_id": "node/13083912855",
        "governorate": "البحر الأحمر",
        "name": "مستشفى الحياة (Al Haya Hospital)",
        "address": "مستشفى الحياة، شارع النصر، القرى السياحية، Sakkala، الغردقة، البحر الأحمر",
        "latitude": 27.1546089,
        "longitude": 33.8216081
    },
    {
        "osm_id": "node/13110393001",
        "governorate": "الأقصر",
        "name": "مستشفي كليوباترا",
        "address": "مستشفي كليوباترا، شارع كليوباترا، Souk de Louxor، مدينه الاقصر، الأقصر",
        "latitude": 25.7000072,
        "longitude": 32.6424326
    },
    {
        "osm_id": "node/13135892861",
        "governorate": "القاهرة",
        "name": "مستشفى أمان",
        "address": "مستشفى أمان، شارع رياض باشا، حلوان البحريه، حلوان، القاهرة",
        "latitude": 29.8511443,
        "longitude": 31.3365605
    },
    {
        "osm_id": "node/13167384000",
        "governorate": "الجيزة",
        "name": "مستشفى كابيتال كير (Capital Care Hospital)",
        "address": "مستشفى كابيتال كير، شارع محمد فريد، القرية السياحية 5، قرية جاردينيا بارك، السادس من أكتوبر، الجيزة",
        "latitude": 29.983664,
        "longitude": 30.9831511
    },
    {
        "osm_id": "node/13167398939",
        "governorate": "الجيزة",
        "name": "مستشفى نيوراسبتاليا (Neuro Espetalia Hospital)",
        "address": "مستشفى نيوراسبتاليا، شارع عبد العزيز فهمي باشا، القرية السياحية 5، قرية جاردينيا بارك، السادس من أكتوبر، الجيزة",
        "latitude": 29.9840365,
        "longitude": 30.9835779
    },
    {
        "osm_id": "node/13169325310",
        "governorate": "الجيزة",
        "name": "مستشفى فوقية",
        "address": "مستشفى فوقية، شارع عبد العزيز فهمي باشا، القرية السياحية 5، قرية جاردينيا بارك، السادس من أكتوبر، الجيزة",
        "latitude": 29.984212,
        "longitude": 30.9840008
    },
    {
        "osm_id": "node/13169518887",
        "governorate": "الإسكندرية",
        "name": "مستشفى إليت (Elite Hospital)",
        "address": "مستشفى إليت، الطريق الدائري، عزبة نادي الصيد، الإسكندرية",
        "latitude": 31.1717453,
        "longitude": 29.943345
    },
    {
        "osm_id": "node/13177651405",
        "governorate": "الجيزة",
        "name": "مستشفى عامة",
        "address": "شارع احمد كامل، الجيزة",
        "latitude": 30.0091224,
        "longitude": 31.1984587
    },
    {
        "osm_id": "node/13322682624",
        "governorate": "أسيوط",
        "name": "Al Rowad",
        "address": "Al Rowad، شارع التحرير، الشركات، سادس، أسيوط",
        "latitude": 27.1810638,
        "longitude": 31.1801785
    },
    {
        "osm_id": "node/13327722417",
        "governorate": "القاهرة",
        "name": "مستشفى الجارم",
        "address": "مستشفى الجارم، شارع 101، معادي الخبيري، الفاروقية، القاهرة",
        "latitude": 29.95673,
        "longitude": 31.2531683
    },
    {
        "osm_id": "node/13333741524",
        "governorate": "الجيزة",
        "name": "مستشفى المحور (Mehwar Hospital)",
        "address": "مستشفى المحور، طريق المدينة التعليمية، كمبوند ريحانة، الشيخ زايد، الجيزة",
        "latitude": 30.0092376,
        "longitude": 30.9963025
    },
    {
        "osm_id": "node/13334724503",
        "governorate": "الجيزة",
        "name": "Alnesr Medical Hospital",
        "address": "Alnesr Medical Hospital، طريق أبو صير، أبو صير، الجيزة",
        "latitude": 29.8930557,
        "longitude": 31.2226023
    },
    {
        "osm_id": "node/13337095902",
        "governorate": "الجيزة",
        "name": "Shorouk Hospital",
        "address": "Shorouk Hospital، شارع الاميره فاديه، كوم الأخضر، الجيزة",
        "latitude": 29.9785986,
        "longitude": 31.147942
    },
    {
        "osm_id": "node/13419397901",
        "governorate": "المنوفية",
        "name": "مستشفى السادات التخصصي (Sadat Specialized Hospital)",
        "address": "مستشفى السادات التخصصي، شارع عمر بن عبد العزيز، بيت الوطن أ، مدينة السادات، المنوفية",
        "latitude": 30.3692667,
        "longitude": 30.5057936
    },
    {
        "osm_id": "node/13450242701",
        "governorate": "أسوان",
        "name": "awc hospital - aseel medical care",
        "address": "awc hospital - aseel medical care، شارع الفنادق، نجع المحطة، أسوان",
        "latitude": 24.0721021,
        "longitude": 32.8827854
    },
    {
        "osm_id": "node/13463043998",
        "governorate": "القليوبية",
        "name": "د. حنان نعيم",
        "address": "د. حنان نعيم، شارع سعيد نوفل، الخصوص، القليوبية",
        "latitude": 30.1628074,
        "longitude": 31.3157684
    },
    {
        "osm_id": "node/13566406801",
        "governorate": "المنوفية",
        "name": "مستشفى السادات التخصصي (Sadat Specialized Hospital)",
        "address": "مستشفى السادات التخصصي، شارع عمر بن عبد العزيز، بيت الوطن أ، مدينة السادات، المنوفية",
        "latitude": 30.369251,
        "longitude": 30.5057935
    },
    {
        "osm_id": "node/13593146701",
        "governorate": "بورسعيد",
        "name": "مستشفى النصر",
        "address": "مستشفى النصر، شارع محمد الالفى، المناخ، مساكن ٥٠٠٠، بورسعيد",
        "latitude": 31.2678964,
        "longitude": 32.2776803
    },
    {
        "osm_id": "node/13593159801",
        "governorate": "بورسعيد",
        "name": "ال سليمان",
        "address": "ال سليمان، شارع سعد زغلول، المناخ، سيريا، بورسعيد",
        "latitude": 31.269511,
        "longitude": 32.292383
    },
    {
        "osm_id": "node/13620461601",
        "governorate": "كفر الشيخ",
        "name": "مستشفى كفر الشيخ العام",
        "address": "مستشفى كفر الشيخ العام، شارع حافظ بدوى، كفر الشيخ",
        "latitude": 31.1163182,
        "longitude": 30.9430251
    },
    {
        "osm_id": "node/13622619975",
        "governorate": "أسوان",
        "name": "وحدة طب أسرة حاجر أبو خليفة",
        "address": "وحدة طب أسرة حاجر أبو خليفة، شارع الشيخ المدنى، مدينه ادفو، أسوان",
        "latitude": 24.9785122,
        "longitude": 32.8394991
    },
    {
        "osm_id": "node/13651155552",
        "governorate": "القليوبية",
        "name": "مستشفي الشاملة الجديدة",
        "address": "مستشفي الشاملة الجديدة، طريق طوخ، شبين القناطر، القليوبية",
        "latitude": 30.3151472,
        "longitude": 31.3131299
    },
    {
        "osm_id": "node/13673218385",
        "governorate": "الجيزة",
        "name": "مركز مصر للقلب والقسطرة و الرعاية المركزة (Egypt Health Center)",
        "address": "مركز مصر للقلب والقسطرة و الرعاية المركزة، شارع احمد الشاطورى، الدقى، الجيزة",
        "latitude": 30.0337191,
        "longitude": 31.2117988
    },
    {
        "osm_id": "node/13725155156",
        "governorate": "الإسكندرية",
        "name": "Saudi German Hospital SGH",
        "address": "Saudi German Hospital SGH، شارع خلف مسجد البشير، الإسكندرية",
        "latitude": 31.0593791,
        "longitude": 29.7182788
    },
    {
        "osm_id": "node/13732205305",
        "governorate": "القاهرة",
        "name": "مركز بدر الطبي",
        "address": "مركز بدر الطبي، شارع عثمان بن عفان، منطقة ب، بدر، القاهرة",
        "latitude": 30.1501218,
        "longitude": 31.7009632
    },
    {
        "osm_id": "node/13743657401",
        "governorate": "المنيا",
        "name": "مستشفى جامعة المنيا (Al-Minya University hospital)",
        "address": "مستشفى جامعة المنيا، طريق القاهرة، اسيوط الزراعى، عزبة صادق قليني، شاكر سيحه، المنيا",
        "latitude": 28.1283449,
        "longitude": 30.7393152
    },
    {
        "osm_id": "node/13901950594",
        "governorate": "القاهرة",
        "name": "مستشفى المشفى (Al Mashfa Hospital)",
        "address": "مستشفى المشفى، طريق القاهرة، الاسماعيليه الصحراوي، القاهرة",
        "latitude": 30.1982578,
        "longitude": 31.6553532
    },
    {
        "osm_id": "node/13907229826",
        "governorate": "القليوبية",
        "name": "مستشفى الخانكة للصحة النفسية وعلاج الإدمان (Al-khanka Hospital for Mental Health)",
        "address": "مستشفى الخانكة للصحة النفسية وعلاج الإدمان، شارع جامعه الدراسات الاسلامية، مساكن التأمين الصحى، السلام، العبور، القليوبية",
        "latitude": 30.2238415,
        "longitude": 31.3685
    },
    {
        "osm_id": "node/13907321984",
        "governorate": "القاهرة",
        "name": "مستشفى مصر الجديدة للصحة النفسية وعلاج الإدمان (Misr-Elgadeda Hospital for Mental Health)",
        "address": "مستشفى مصر الجديدة للصحة النفسية وعلاج الإدمان، طريق المطار، القاهرة",
        "latitude": 30.1216524,
        "longitude": 31.3959786
    },
    {
        "osm_id": "node/13907396658",
        "governorate": "بورسعيد",
        "name": "مستشفى بورسعيد للصحة النفسية وعلاج الإدمان (Portsaid Hospital for Mental Health)",
        "address": "مستشفى بورسعيد للصحة النفسية وعلاج الإدمان، شارع 23 ديسمبر، الزهور، مساكن ٥٠٠٠، بورسعيد",
        "latitude": 31.2513116,
        "longitude": 32.2619335
    },
    {
        "osm_id": "node/13907606661",
        "governorate": "القليوبية",
        "name": "مستشفى بنها للصحة النفسية وعلاج الإدمان (Benha Hospital for Mental Health)",
        "address": "مستشفى بنها للصحة النفسية وعلاج الإدمان، شارع الاهرام، بنها، القليوبية",
        "latitude": 30.4653806,
        "longitude": 31.1869958
    },
    {
        "osm_id": "node/13911388944",
        "governorate": "الشرقية",
        "name": "مستشفى العزازى للصحة النفسية وعلاج الإدمان (Al-Azazy Hospital for Mental Health)",
        "address": "مستشفى العزازى للصحة النفسية وعلاج الإدمان، طريق العزازية، مدينه القرين، فاقوس، الشرقية",
        "latitude": 30.5855264,
        "longitude": 31.7200975
    },
    {
        "osm_id": "node/13911411002",
        "governorate": "المنوفية",
        "name": "مستشفى شبين الكوم للصحة النفسية وعلاج الإدمان (Shebeen- Elkom Mental Health Hospital)",
        "address": "مستشفى شبين الكوم للصحة النفسية وعلاج الإدمان، شارع حسنى مبارك، شبين الكوم، المنوفية",
        "latitude": 30.5447953,
        "longitude": 31.0479924
    },
    {
        "osm_id": "node/13914231401",
        "governorate": "الغربية",
        "name": "مستشفى طنطا للصحة النفسية وعلاج الإدمان (Tanta Hospital for Mental Health)",
        "address": "مستشفى طنطا للصحة النفسية وعلاج الإدمان، شارع الجيش، طه الحكيم، ام المؤمنين، الغربية",
        "latitude": 30.8004467,
        "longitude": 30.9957852
    },
    {
        "osm_id": "node/13914650873",
        "governorate": "بنى سويف",
        "name": "مستشفى بنى سويف للصحة النفسية وعلاج الإدمان (Bani-Suif Hospital for Mental Health)",
        "address": "مستشفى بنى سويف للصحة النفسية وعلاج الإدمان، شارع صفوت، بنى عطية، بنى سويف",
        "latitude": 29.0650409,
        "longitude": 31.1033106
    },